,FOD_ID,FPA_ID,SOURCE_SYSTEM_TYPE,SOURCE_SYSTEM,NWCG_REPORTING_AGENCY,NWCG_REPORTING_UNIT_ID,NWCG_REPORTING_UNIT_NAME,SOURCE_REPORTING_UNIT,SOURCE_REPORTING_UNIT_NAME,LOCAL_FIRE_REPORT_ID,LOCAL_INCIDENT_ID,FIRE_CODE,FIRE_NAME,ICS_209_INCIDENT_NUMBER,ICS_209_NAME,MTBS_ID,MTBS_FIRE_NAME,COMPLEX_NAME,FIRE_YEAR,DISCOVERY_DATE,DISCOVERY_DOY,DISCOVERY_TIME,STAT_CAUSE_CODE,STAT_CAUSE_DESCR,CONT_DATE,CONT_DOY,CONT_TIME,FIRE_SIZE,FIRE_SIZE_CLASS,LATITUDE,LONGITUDE,OWNER_CODE,OWNER_DESCR,STATE,COUNTY,FIPS_CODE,FIPS_NAME
0,1,FS-1418826,FED,FS-FIRESTAT,FS,USCAPNF,Plumas National Forest,0511,Plumas National Forest,1,PNF-47,BJ8K,FOUNTAIN,,,,,,2005,2453403.5,33,1300,9.0,Miscellaneous,2453403.5,33.0,1730,0.1,A,40.03694444,-121.00583333,5.0,USFS,CA,63,063,Plumas
1,2,FS-1418827,FED,FS-FIRESTAT,FS,USCAENF,Eldorado National Forest,0503,Eldorado National Forest,13,13,AAC0,PIGEON,,,,,,2004,2453137.5,133,0845,1.0,Lightning,2453137.5,133.0,1530,0.25,A,38.93305556,-120.40444444,5.0,USFS,CA,61,061,Placer
2,3,FS-1418835,FED,FS-FIRESTAT,FS,USCAENF,Eldorado National Forest,0503,Eldorado National Forest,27,021,A32W,SLACK,,,,,,2004,2453156.5,152,1921,5.0,Debris Burning,2453156.5,152.0,2024,0.1,A,38.98416667,-120.73555556,13.0,STATE OR PRIVATE,CA,17,017,El Dorado
3,4,FS-1418845,FED,FS-FIRESTAT,FS,USCAENF,Eldorado National Forest,0503,Eldorado National Forest,43,6,,DEER,,,,,,2004,2453184.5,180,1600,1.0,Lightning,2453189.5,185.0,1400,0.1,A,38.55916667,-119.91333333,5.0,USFS,CA,3,003,Alpine
4,5,FS-1418847,FED,FS-FIRESTAT,FS,USCAENF,Eldorado National Forest,0503,Eldorado National Forest,44,7,,STEVENOT,,,,,,2004,2453184.5,180,1600,1.0,Lightning,2453189.5,185.0,1200,0.1,A,38.55916667,-119.93305556,5.0,USFS,CA,3,003,Alpine
5,6,FS-1418849,FED,FS-FIRESTAT,FS,USCAENF,Eldorado National Forest,0503,Eldorado National Forest,54,8,,HIDDEN,,,,,,2004,2453186.5,182,1800,1.0,Lightning,2453187.5,183.0,1600,0.1,A,38.63527778,-120.10361111,5.0,USFS,CA,5,005,Amador
6,7,FS-1418851,FED,FS-FIRESTAT,FS,USCAENF,Eldorado National Forest,0503,Eldorado National Forest,58,9,,FORK,,,,,,2004,2453187.5,183,1800,1.0,Lightning,2453188.5,184.0,1400,0.1,A,38.68833333,-120.15333333,5.0,USFS,CA,17,017,El Dorado
7,8,FS-1418854,FED,FS-FIRESTAT,FS,USCASHF,Shasta-Trinity National Forest,0514,Shasta-Trinity National Forest,3,02,BK5X,SLATE,,,,,,2005,2453437.5,67,1300,5.0,Debris Burning,2453437.5,67.0,1600,0.8,B,40.96805556,-122.43388889,13.0,STATE OR PRIVATE,CA,,,
8,9,FS-1418856,FED,FS-FIRESTAT,FS,USCASHF,Shasta-Trinity National Forest,0514,Shasta-Trinity National Forest,5,03,BLPQ,SHASTA,,,,,,2005,2453444.5,74,1200,5.0,Debris Burning,2453444.5,74.0,1700,1.0,B,41.23361111,-122.28333333,13.0,STATE OR PRIVATE,CA,,,
9,10,FS-1418859,FED,FS-FIRESTAT,FS,USCAENF,Eldorado National Forest,0503,Eldorado National Forest,61,10,,TANGLEFOOT,,,,,,2004,2453187.5,183,1800,1.0,Lightning,2453188.5,184.0,1800,0.1,A,38.54833333,-120.14916667,5.0,USFS,CA,5,005,Amador
10,11,FS-1418861,FED,FS-FIRESTAT,FS,USCAENF,Eldorado National Forest,0503,Eldorado National Forest,64,11,,FORK #2,,,,,,2004,2453188.5,184,1830,1.0,Lightning,2453189.5,185.0,1900,0.1,A,38.69166667,-120.15972222,5.0,USFS,CA,17,017,El Dorado
11,12,FS-1418863,FED,FS-FIRESTAT,FS,USCAENF,Eldorado National Forest,0503,Eldorado National Forest,71,14,,MOKE #2,,,,,,2004,2453188.5,184,1730,1.0,Lightning,2453189.5,185.0,2000,0.1,A,38.5275,-120.10611111,5.0,USFS,CA,5,005,Amador
12,13,FS-1418865,FED,FS-FIRESTAT,FS,USCAENF,Eldorado National Forest,0503,Eldorado National Forest,91,26,,WRIGHTS,,,,,,2004,2453251.5,247,1600,9.0,Miscellaneous,2453251.5,247.0,1630,0.1,A,38.78666667,-120.19333333,5.0,USFS,CA,17,017,El Dorado
13,14,FS-1418872,FED,FS-FIRESTAT,FS,USCAENF,Eldorado National Forest,0503,Eldorado National Forest,99,21,,TIGER,,,,,,2004,2453276.5,272,1200,4.0,Campfire,2453276.5,272.0,1800,6.0,B,38.43333333,-120.51,14.0,MISSING/NOT SPECIFIED,CA,5,005,Amador
14,15,FS-1418874,FED,FS-FIRESTAT,FS,USCAENF,Eldorado National Forest,0503,Eldorado National Forest,102,28,,BROWN,,,,,,2004,2453281.5,277,0630,1.0,Lightning,2453281.5,277.0,1500,0.2,A,38.67583333,-120.27972222,5.0,USFS,CA,17,017,El Dorado
15,16,FS-1418876,FED,FS-FIRESTAT,FS,USCAENF,Eldorado National Forest,0503,Eldorado National Forest,103,22,,SOPIAGO,,,,,,2004,2453281.5,277,0930,1.0,Lightning,2453281.5,277.0,1400,0.1,A,38.56416667,-120.54222222,5.0,USFS,CA,17,017,El Dorado
16,17,FS-1418878,FED,FS-FIRESTAT,FS,USCAENF,Eldorado National Forest,0503,Eldorado National Forest,109,23,,POWER,CA-ENF-017646,POWER,CA3850212028020041006,POWER,,2004,2453284.5,280,1415,2.0,Equipment Use,2453299.5,295.0,1000,16823.0,G,38.52333333,-120.21166667,5.0,USFS,CA,5,005,Amador
17,18,FS-1418881,FED,FS-FIRESTAT,FS,USCAENF,Eldorado National Forest,0503,Eldorado National Forest,111,35,BHA3,FREDS,CA-ENF-18044,FREDS,CA3878712031820041013,FREDS,,2004,2453291.5,287,1618,2.0,Equipment Use,2453295.5,291.0,1800,7700.0,G,38.78,-120.26,5.0,USFS,CA,17,017,El Dorado
18,19,FS-1418884,FED,FS-FIRESTAT,FS,USCAENF,Eldorado National Forest,0503,Eldorado National Forest,115,22,,HARTLESS,,,,,,2004,2453329.5,325,2000,5.0,Debris Burning,2453330.5,326.0,1630,0.1,A,38.945,-120.41166667,13.0,STATE OR PRIVATE,CA,17,017,El Dorado
19,20,FS-1418887,FED,FS-FIRESTAT,FS,USNMLNF,Lincoln National Forest,0308,Lincoln National Forest,8,NM-LNF-008,AVPA,SPRING,,,,,,2004,2453160.5,156,1030,1.0,Lightning,2453160.5,156.0,1400,0.1,A,33.44083333,-105.72055556,5.0,USFS,NM,27,027,Lincoln
20,21,FS-1418888,FED,FS-FIRESTAT,FS,USNMLNF,Lincoln National Forest,0308,Lincoln National Forest,12,NM-LNF-012,A49Y,ANGRY,,,,,,2004,2453175.5,171,1530,1.0,Lightning,2453175.5,171.0,1940,0.1,A,33.30722222,-105.62861111,13.0,STATE OR PRIVATE,NM,27,027,Lincoln
21,22,FS-1418893,FED,FS-FIRESTAT,FS,USNMLNF,Lincoln National Forest,0308,Lincoln National Forest,13,NM-LNF-013,A5DG,DARK,,,,,,2004,2453177.5,173,1440,1.0,Lightning,2453178.5,174.0,1100,0.1,A,33.44444444,-105.76805556,5.0,USFS,NM,27,027,Lincoln
22,23,FS-1418894,FED,FS-FIRESTAT,FS,USNMLNF,Lincoln National Forest,0308,Lincoln National Forest,16,NM-LNF-016,AVP4,CHURCH #2,,,,,,2004,2453181.5,177,1910,1.0,Lightning,2453182.5,178.0,1300,0.1,A,33.55944444,-105.76611111,5.0,USFS,NM,27,027,Lincoln
23,24,FS-1418895,FED,FS-FIRESTAT,FS,USNMLNF,Lincoln National Forest,0308,Lincoln National Forest,19,NM-LNF-019,AVP4,PINE CONE,,,,,,2004,2453187.5,183,1250,1.0,Lightning,2453188.5,184.0,1110,0.25,A,33.30805556,-105.52611111,5.0,USFS,NM,27,027,Lincoln
24,25,FS-1418896,FED,FS-FIRESTAT,FS,USNMLNF,Lincoln National Forest,0308,Lincoln National Forest,20,NM-LNF-020,AVP4,EAGLE,,,,,,2004,2453187.5,183,1712,1.0,Lightning,2453192.5,188.0,1450,2.5,B,33.54527778,-105.22944444,5.0,USFS,NM,27,027,Lincoln
25,26,FS-1418897,FED,FS-FIRESTAT,FS,USNMLNF,Lincoln National Forest,0308,Lincoln National Forest,22,NM-LNF-022,AVP4,BACHELOR,,,,,,2004,2453206.5,202,1405,1.0,Lightning,2453206.5,202.0,1600,10.0,C,33.31583333,-105.51222222,5.0,USFS,NM,27,027,Lincoln
26,27,FS-1418898,FED,FS-FIRESTAT,FS,USNMLNF,Lincoln National Forest,0308,Lincoln National Forest,31,NM-LNF-031,A0SY,SONTERRA,,,,,,2004,2453082.5,78,1145,9.0,Miscellaneous,2453082.5,78.0,2030,8.2,B,33.44444444,-105.63111111,14.0,MISSING/NOT SPECIFIED,NM,27,027,Lincoln
27,28,FS-1418903,FED,FS-FIRESTAT,FS,USNMLNF,Lincoln National Forest,0308,Lincoln National Forest,26,NM-LNF-013,AVP4,PEPPER,,,,,,2004,2453222.5,218,0945,1.0,Lightning,2453222.5,218.0,1815,0.1,A,33.36805556,-105.50722222,5.0,USFS,NM,27,027,Lincoln
28,29,FS-1418904,FED,FS-FIRESTAT,FS,USNMLNF,Lincoln National Forest,0308,Lincoln National Forest,33,NM-LNF-033,A0TF,120A,,,,,,2004,2453082.5,78,1655,5.0,Debris Burning,2453082.5,78.0,2130,0.25,A,33.38527778,-105.63861111,5.0,USFS,NM,27,027,Lincoln
29,30,FS-1418905,FED,FS-FIRESTAT,FS,USNMLNF,Lincoln National Forest,0308,Lincoln National Forest,36,NM-LNF-036,A3B1,MUSKETBURN,,,,,,2004,2453136.5,132,1515,5.0,Debris Burning,2453136.5,132.0,1552,0.25,A,33.38277778,-105.70027778,5.0,USFS,NM,27,027,Lincoln
30,31,FS-1418906,FED,FS-FIRESTAT,FS,USNMLNF,Lincoln National Forest,0308,Lincoln National Forest,37,NM-LNF-037,A49X,OREGON,,,,,,2004,2453175.5,171,1645,1.0,Lightning,2453175.5,171.0,2020,0.1,A,33.37972222,-105.68027778,5.0,USFS,NM,27,027,Lincoln
31,32,FS-1418907,FED,FS-FIRESTAT,FS,USORDEF,Deschutes National Forest,0601,Deschutes National Forest,1,1-001,BJ9H,0028,,,,,,2005,2453406.5,36,0943,4.0,Campfire,2453407.5,37.0,1226,0.1,A,43.99555556,-121.41416667,13.0,STATE OR PRIVATE,OR,17,017,Deschutes
32,33,FS-1418909,FED,FS-FIRESTAT,FS,USNMLNF,Lincoln National Forest,0308,Lincoln National Forest,15,NM-LNF-015,AVP4,CHURCH #1,,,,,,2004,2453181.5,177,1927,1.0,Lightning,2453182.5,178.0,1749,0.1,A,33.49666667,-105.73972222,5.0,USFS,NM,27,027,Lincoln
33,34,FS-1418910,FED,FS-FIRESTAT,FS,USNMLNF,Lincoln National Forest,0308,Lincoln National Forest,38,NM-LNF-038,AVP4,DRY MILLS,,,,,,2004,2453247.5,243,1030,1.0,Lightning,2453247.5,243.0,1501,0.1,A,33.41777778,-105.7075,5.0,USFS,NM,27,027,Lincoln
34,35,FS-1418911,FED,FS-FIRESTAT,FS,USNMLNF,Lincoln National Forest,0308,Lincoln National Forest,41,NM-LNF-041,BEY3,AGUA FRIA,,,,,,2004,2453289.5,285,1015,1.0,Lightning,2453289.5,285.0,1300,0.1,A,33.25527778,-105.62611111,5.0,USFS,NM,27,027,Lincoln
35,36,FS-1418916,FED,FS-FIRESTAT,FS,USORDEF,Deschutes National Forest,0601,Deschutes National Forest,3,1-003,BK2W,0044,,,,,,2005,2453434.5,64,1042,4.0,Campfire,2453434.5,64.0,1107,0.1,A,44.04333333,-121.38611111,5.0,USFS,OR,17,017,Deschutes
36,37,FS-1418917,FED,FS-FIRESTAT,FS,USNCNCF,National Forests in North Carolina,0811,National Forests in North Carolina,8,001,BK8V,TANNASSEE GAP I,,,,,,2005,2453440.5,70,1500,2.0,Equipment Use,2453440.5,70.0,1800,0.6,B,35.22833333,-82.88444444,5.0,USFS,NC,21,021,Buncombe
37,38,FS-1418918,FED,FS-FIRESTAT,FS,USNCNCF,National Forests in North Carolina,0811,National Forests in North Carolina,2,002,BJ66,HOWARD GAP,,,,,,2005,2453397.5,27,2200,7.0,Arson,2453398.5,28.0,0300,50.3,C,35.00027778,-83.35111111,5.0,USFS,NC,113,113,Macon
38,39,FS-1418919,FED,FS-FIRESTAT,FS,USNCNCF,National Forests in North Carolina,0811,National Forests in North Carolina,3,1,BJ9U,HOT SPRINGS,,,,,,2005,2453407.5,37,1900,7.0,Arson,2453407.5,37.0,2000,0.1,A,35.93166667,-81.71666667,5.0,USFS,NC,27,027,Caldwell
39,40,FS-1418920,FED,FS-FIRESTAT,FS,USNCNCF,National Forests in North Carolina,0811,National Forests in North Carolina,4,2,BKC8,AUSTIN CREEK,NC-NCS-050201401,Austin Creek,,,,2005,2453413.5,43,1520,5.0,Debris Burning,2453414.5,44.0,0330,125.0,D,36.00166667,-81.59,14.0,MISSING/NOT SPECIFIED,NC,27,027,Caldwell
40,41,FS-1418921,FED,FS-FIRESTAT,FS,USNCNCF,National Forests in North Carolina,0811,National Forests in North Carolina,29,029,BN3Z,HEADQUARTERS,,,,,,2005,2453476.5,106,1625,5.0,Debris Burning,2453476.5,106.0,2200,25.0,C,35.985,-81.85166667,14.0,MISSING/NOT SPECIFIED,NC,11,011,Avery
41,42,FS-1418922,FED,FS-FIRESTAT,FS,USNCNCF,National Forests in North Carolina,0811,National Forests in North Carolina,44,4,BQ5X,BLUFF,,,,,,2005,2453499.5,129,1343,5.0,Debris Burning,2453499.5,129.0,1530,3.0,B,35.9,-81.68333333,14.0,MISSING/NOT SPECIFIED,NC,27,027,Caldwell
42,43,FS-1418923,FED,FS-FIRESTAT,FS,USNCNCF,National Forests in North Carolina,0811,National Forests in North Carolina,46,5,BQ54,MOUNTAIN,,,,,,2005,2453499.5,129,1900,5.0,Debris Burning,2453499.5,129.0,2330,10.0,C,36.035,-81.585,14.0,MISSING/NOT SPECIFIED,NC,27,027,Caldwell
43,44,FS-1418924,FED,FS-FIRESTAT,FS,USORDEF,Deschutes National Forest,0601,Deschutes National Forest,6,1-004,BMP6,0088,,,,,,2005,2453465.5,95,1205,4.0,Campfire,2453465.5,95.0,1210,0.1,A,43.95555556,-121.35222222,5.0,USFS,OR,17,017,Deschutes
44,45,FS-1418933,FED,FS-FIRESTAT,FS,USWYMBF,Medicine Bow National Forest,0206,Medicine Bow-Routt National Forest,51,,BTW2,JOHN,,,,,,2005,2453527.5,157,1530,1.0,Lightning,2453527.5,157.0,2030,0.25,A,42.35472222,-105.50555556,13.0,STATE OR PRIVATE,WY,9,009,Converse
45,46,FS-1418934,FED,FS-FIRESTAT,FS,USNCNCF,National Forests in North Carolina,0811,National Forests in North Carolina,10,01,BK9X,WATERLOO,,,,,,2005,2453440.5,70,1330,9.0,Miscellaneous,2453440.5,70.0,1930,10.0,C,35.00138889,-83.38416667,14.0,MISSING/NOT SPECIFIED,NC,113,113,Macon
46,47,FS-1418935,FED,FS-FIRESTAT,FS,USORUMF,Umatilla National Forest,0614,Umatilla National Forest,1,019,BE07,EARLY,,,,,,2005,2453440.5,70,1000,9.0,Miscellaneous,2453440.5,70.0,1401,5.0,B,44.91111111,-119.69611111,5.0,USFS,OR,69,069,Wheeler
47,48,FS-1418940,FED,FS-FIRESTAT,FS,USCOPSF,Pike and San Isabel National Forest,0212,Pike San Isabel National Forest,22,001,BEX1,HATCH,,,,,,2005,2453535.5,165,1300,1.0,Lightning,2453535.5,165.0,1530,0.5,B,39.29222222,-105.18305556,5.0,USFS,CO,,,
48,49,FS-1418943,FED,FS-FIRESTAT,FS,USORDEF,Deschutes National Forest,0601,Deschutes National Forest,2,1-002,BKG2,0032,,,,,,2005,2453417.5,47,1535,4.0,Campfire,2453417.5,47.0,1600,0.1,A,43.72527778,-121.57416667,5.0,USFS,OR,17,017,Deschutes
49,50,FS-1418944,FED,FS-FIRESTAT,FS,USOROCF,Ochoco National Forest,0607,Ochoco National Forest,1,5-001,BK1B,0041,,,,,,2005,2453431.5,61,1640,5.0,Debris Burning,2453431.5,61.0,1745,0.1,A,44.41,-121.31555556,5.0,USFS,OR,17,017,Deschutes
50,51,FS-1418945,FED,FS-FIRESTAT,FS,USORFWF,Fremont-Winema National Forest,0602,Fremont-Winema National Forest,3,402,BE0X,HALFWAY  108,,,,,,2005,2453518.5,148,1441,1.0,Lightning,2453518.5,148.0,1911,0.1,A,42.13388889,-121.23416667,5.0,USFS,OR,37,037,Lake
51,52,FS-1418953,FED,FS-FIRESTAT,FS,USORFWF,Fremont-Winema National Forest,0602,Fremont-Winema National Forest,1,101,BR37,PARADISE  104,,,,,,2005,2453507.5,137,1400,9.0,Miscellaneous,2453507.5,137.0,1500,0.1,A,42.31138889,-120.90277778,5.0,USFS,OR,37,037,Lake
52,53,FS-1418954,FED,FS-FIRESTAT,FS,USORFWF,Fremont-Winema National Forest,0602,Fremont-Winema National Forest,2,401,B50B,STUMP 106,,,,,,2005,2453517.5,147,1539,7.0,Arson,2453517.5,147.0,1655,0.1,A,42.95083333,-120.83611111,5.0,USFS,OR,37,037,Lake
53,54,FS-1418965,FED,FS-FIRESTAT,FS,USWYBHF,Bighorn National Forest,0202,Bighorn National Forest,1,WY-BHF-014,BM2B,CRYSTAL SPRINGS,,,,,,2005,2453467.5,97,1615,9.0,Miscellaneous,2453467.5,97.0,1700,0.1,A,44.81611111,-107.33111111,5.0,USFS,WY,33,033,Sheridan
54,55,FS-1418966,FED,FS-FIRESTAT,FS,USORUMF,Umatilla National Forest,0614,Umatilla National Forest,3,401-046,BE07,UPPER JIM,,,,,,2005,2453540.5,170,1430,1.0,Lightning,2453541.5,171.0,1400,0.3,B,46.22083333,-117.785,5.0,USFS,WA,27,027,Grays Harbor
55,56,FS-1418969,FED,FS-FIRESTAT,FS,USORFWF,Fremont-Winema National Forest,0602,Fremont-Winema National Forest,8,103,BE0X,COTTONWOOD  128,,,,,,2005,2453546.5,176,1800,1.0,Lightning,2453547.5,177.0,1230,0.1,A,42.38694444,-120.80861111,5.0,USFS,OR,37,037,Lake
56,57,FS-1418970,FED,FS-FIRESTAT,FS,USORFWF,Fremont-Winema National Forest,0602,Fremont-Winema National Forest,6,102,BE0X,OBENCHAIN  125,,,,,,2005,2453546.5,176,1300,1.0,Lightning,2453546.5,176.0,1745,2.0,B,42.51472222,-121.12,5.0,USFS,OR,37,037,Lake
57,58,FS-1418971,FED,FS-FIRESTAT,FS,USMTKNF,Kootenai National Forest,0114,Kootenai National Forest,4,002,BEW1,IOWA FLATS,,,,,,2005,2453437.5,67,1334,5.0,Debris Burning,2453437.5,67.0,1400,0.5,B,48.92194444,-115.0925,13.0,STATE OR PRIVATE,MT,53,053,Lincoln
58,59,FS-1418973,FED,FS-FIRESTAT,FS,USMTKNF,Kootenai National Forest,0114,Kootenai National Forest,3,01,BK5T,GATEWAY,,,,,,2005,2453435.5,65,1510,4.0,Campfire,2453435.5,65.0,1900,9.0,B,48.99833333,-115.16555556,5.0,USFS,MT,53,053,Lincoln
59,60,FS-1418974,FED,FS-FIRESTAT,FS,USORFWF,Fremont-Winema National Forest,0602,Fremont-Winema National Forest,4,403,BE0X,JUNIOR  122,,,,,,2005,2453545.5,175,1845,1.0,Lightning,2453545.5,175.0,2230,0.1,A,42.92138889,-121.03083333,5.0,USFS,OR,37,037,Lake
60,61,FS-1418975,FED,FS-FIRESTAT,FS,USMTKNF,Kootenai National Forest,0114,Kootenai National Forest,28,001,BUS5,HAINES POINT,,,,,,2005,2453537.5,167,1234,4.0,Campfire,2453538.5,168.0,1321,5.0,B,47.66555556,-115.56916667,5.0,USFS,MT,89,089,Sanders
61,62,FS-1418976,FED,FS-FIRESTAT,FS,USCOPSF,Pike and San Isabel National Forest,0212,Pike San Isabel National Forest,14,001,BEX1,TROUT CREEK II,,,,,,2005,2453520.5,150,1100,1.0,Lightning,2453521.5,151.0,1218,0.2,A,38.91333333,-105.98361111,5.0,USFS,CO,,,
62,63,FS-1418978,FED,FS-FIRESTAT,FS,USCOPSF,Pike and San Isabel National Forest,0212,Pike San Isabel National Forest,29,003,BU9J,MT ELBERT,,,,,,2005,2453542.5,172,1241,4.0,Campfire,2453542.5,172.0,1506,0.1,A,39.10027778,-106.3675,5.0,USFS,CO,,,
63,64,FS-1418993,FED,FS-FIRESTAT,FS,USUTUWF,Uinta/Wasatch-Cache National Forest,0418,Uinta National Forest,5,154,BEZ9,RED HOLLOW # 1,,,,,,2005,2453549.5,179,1654,1.0,Lightning,2453549.5,179.0,1757,0.1,A,40.08888889,-111.37833333,5.0,USFS,UT,49,049,Utah
64,65,FS-1418994,FED,FS-FIRESTAT,FS,USMTKNF,Kootenai National Forest,0114,Kootenai National Forest,15,003,BP98,LLAMA,,,,,,2005,2453487.5,117,1232,5.0,Debris Burning,2453487.5,117.0,1800,2.0,B,48.89944444,-115.10694444,13.0,STATE OR PRIVATE,MT,53,053,Lincoln
65,66,FS-1418995,FED,FS-FIRESTAT,FS,USMTKNF,Kootenai National Forest,0114,Kootenai National Forest,16,004,BQC0,HWY 37,,,,,,2005,2453484.5,114,1930,9.0,Miscellaneous,2453484.5,114.0,1945,0.1,A,48.90694444,-115.07666667,13.0,STATE OR PRIVATE,MT,53,053,Lincoln
66,67,FS-1419001,FED,FS-FIRESTAT,FS,USMTKNF,Kootenai National Forest,0114,Kootenai National Forest,40,014,BYE1,RACE TRACK 4,,,,,,2005,2453555.5,185,0800,4.0,Campfire,2453555.5,185.0,0815,0.1,A,48.40777778,-115.55833333,13.0,STATE OR PRIVATE,MT,53,053,Lincoln
67,68,FS-1419017,FED,FS-FIRESTAT,FS,USMTKNF,Kootenai National Forest,0114,Kootenai National Forest,43,015,BYE5,RACE TRACK 5,,,,,,2005,2453556.5,186,0715,4.0,Campfire,2453556.5,186.0,0745,0.1,A,48.40777778,-115.55777778,13.0,STATE OR PRIVATE,MT,53,053,Lincoln
68,69,FS-1419031,FED,FS-FIRESTAT,FS,USORFWF,Fremont-Winema National Forest,0602,Fremont-Winema National Forest,7,201,BE0X,THOMAS CREEK  126,,,,,,2005,2453546.5,176,1645,1.0,Lightning,2453546.5,176.0,1900,0.1,A,42.30277778,-120.54361111,5.0,USFS,OR,37,037,Lake
69,70,FS-1419033,FED,FS-FIRESTAT,FS,USORFWF,Fremont-Winema National Forest,0602,Fremont-Winema National Forest,9,202,BE0X,DOG  129,,,,,,2005,2453547.5,177,1540,1.0,Lightning,2453547.5,177.0,2100,0.5,B,42.13694444,-120.70166667,5.0,USFS,OR,37,037,Lake
70,71,FS-1419039,FED,FS-FIRESTAT,FS,USMTKNF,Kootenai National Forest,0114,Kootenai National Forest,18,005,BQW1,OLSEN HILL,,,,,,2005,2453492.5,122,2000,5.0,Debris Burning,2453492.5,122.0,2200,17.0,C,48.96666667,-115.20666667,13.0,STATE OR PRIVATE,MT,53,053,Lincoln
71,72,FS-1419041,FED,FS-FIRESTAT,FS,USMTKNF,Kootenai National Forest,0114,Kootenai National Forest,21,006,BS6S,SHOOTING RANGE,,,,,,2005,2453519.5,149,2000,4.0,Campfire,2453519.5,149.0,2100,0.1,A,48.96444444,-115.18583333,5.0,USFS,MT,53,053,Lincoln
72,74,FS-1419045,FED,FS-FIRESTAT,FS,USMTKNF,Kootenai National Forest,0114,Kootenai National Forest,33,008,BXR5,WATER TANK,,,,,,2005,2453552.5,182,2030,9.0,Miscellaneous,2453552.5,182.0,2300,3.0,B,48.89444444,-115.16527778,13.0,STATE OR PRIVATE,MT,53,053,Lincoln
73,75,FS-1419047,FED,FS-FIRESTAT,FS,USMTKNF,Kootenai National Forest,0114,Kootenai National Forest,44,009,BYS6,BANKS,,,,,,2005,2453556.5,186,1616,5.0,Debris Burning,2453556.5,186.0,2115,0.25,A,48.81694444,-115.11138889,13.0,STATE OR PRIVATE,MT,53,053,Lincoln
74,76,FS-1419050,FED,FS-FIRESTAT,FS,USMTKNF,Kootenai National Forest,0114,Kootenai National Forest,45,010,BY03,AIRPORT RD,,,,,,2005,2453554.5,184,1745,9.0,Miscellaneous,2453554.5,184.0,1815,0.1,A,48.9625,-115.08555556,13.0,STATE OR PRIVATE,MT,53,053,Lincoln
75,77,FS-1419053,FED,FS-FIRESTAT,FS,USAZKNF,Kaibab National Forest,0307,Kaibab National Forest,1,001,BEY2,BENHAM,,,,,,2005,2453506.5,136,1713,4.0,Campfire,2453506.5,136.0,1949,0.5,B,35.23638889,-112.21638889,5.0,USFS,AZ,5,005,Coconino
76,78,FS-1419054,FED,FS-FIRESTAT,FS,USCASRF,Six Rivers National Forest,0510,Six Rivers National Forest,9,53-03,BWP8,LINTO,,,,,,2005,2453548.5,178,1007,5.0,Debris Burning,2453548.5,178.0,1130,0.1,A,41.03722222,-123.53305556,5.0,USFS,CA,,,
77,79,FS-1419057,FED,FS-FIRESTAT,FS,USWYBHF,Bighorn National Forest,0202,Bighorn National Forest,2,WY-BHF-020,BNR0,HUNTER MESA,,,,,,2005,2453474.5,104,1050,9.0,Miscellaneous,2453474.5,104.0,1300,0.25,A,44.33555556,-106.95194444,5.0,USFS,WY,19,019,Johnson
78,80,FS-1419058,FED,FS-FIRESTAT,FS,USORUMF,Umatilla National Forest,0614,Umatilla National Forest,2,601-045,BE07,SMITH RIDGE 1,,,,,,2005,2453539.5,169,1412,1.0,Lightning,2453540.5,170.0,1848,0.1,A,45.55444444,-118.10194444,5.0,USFS,OR,61,061,Union
79,81,FS-1419060,FED,FS-FIRESTAT,FS,USMTKNF,Kootenai National Forest,0114,Kootenai National Forest,19,003,BRR9,BEARING,,,,,,2005,2453503.5,133,1300,2.0,Equipment Use,2453503.5,133.0,1420,0.1,A,48.28222222,-115.51055556,13.0,STATE OR PRIVATE,MT,53,053,Lincoln
80,82,FS-1419061,FED,FS-FIRESTAT,FS,USMTKNF,Kootenai National Forest,0114,Kootenai National Forest,50,019,BZ0T,PIPE FLATS 2,,,,,,2005,2453561.5,191,0915,4.0,Campfire,2453561.5,191.0,0940,0.1,A,48.41666667,-115.54611111,5.0,USFS,MT,53,053,Lincoln
81,83,FS-1419063,FED,FS-FIRESTAT,FS,USMTKNF,Kootenai National Forest,0114,Kootenai National Forest,38,012,BYD9,OBSIDIAN,,,,,,2005,2453554.5,184,2000,4.0,Campfire,2453555.5,185.0,1351,0.1,A,48.34888889,-115.49083333,5.0,USFS,MT,53,053,Lincoln
82,84,FS-1419065,FED,FS-FIRESTAT,FS,USMTKNF,Kootenai National Forest,0114,Kootenai National Forest,48,017,BZ0R,RACETRACK #7,,,,,,2005,2453560.5,190,1225,4.0,Campfire,2453560.5,190.0,1254,0.1,A,48.40833333,-115.55833333,5.0,USFS,MT,53,053,Lincoln
83,85,FS-1419067,FED,FS-FIRESTAT,FS,USAZCNF,Coronado National Forest,0305,Coronado National Forest,31,001,BR3U,GILLESPIE,,,,,,2005,2453508.5,138,1145,2.0,Equipment Use,2453508.5,138.0,1400,0.1,A,32.56055556,-109.7725,5.0,USFS,AZ,9,009,Graham
84,86,FS-1419068,FED,FS-FIRESTAT,FS,USMTKNF,Kootenai National Forest,0114,Kootenai National Forest,39,013,BYE0,HWY 2,,,,,,2005,2453555.5,185,0530,9.0,Miscellaneous,,,,0.3,B,48.22805556,-115.48027778,13.0,STATE OR PRIVATE,MT,53,053,Lincoln
85,87,FS-1419069,FED,FS-FIRESTAT,FS,USNMLNF,Lincoln National Forest,0308,Lincoln National Forest,15,NM-LNF-015,B2B8,ANTELOPE,,,,,,2005,2453558.5,188,1731,1.0,Lightning,2453559.5,189.0,1100,45.6,C,32.46722222,-104.94166667,5.0,USFS,NM,5,005,Chaves
86,88,FS-1419070,FED,FS-FIRESTAT,FS,USAZCNF,Coronado National Forest,0305,Coronado National Forest,55,002,BWD2,CUNNINGHAM,,,,,,2005,2453547.5,177,1230,1.0,Lightning,2453547.5,177.0,1900,0.5,B,32.68555556,-109.86916667,5.0,USFS,AZ,9,009,Graham
87,89,FS-1419071,FED,FS-FIRESTAT,FS,USCAANF,Angeles National Forest,0501,Angeles National Forest,15,01,BP31,CANYON,,,,,,2005,2453484.5,114,0710,9.0,Miscellaneous,2453484.5,114.0,0745,0.1,A,34.17444444,-117.765,5.0,USFS,CA,,,
88,90,FS-1419073,FED,FS-FIRESTAT,FS,USCAANF,Angeles National Forest,0501,Angeles National Forest,64,03,BE8B,FOUNTAIN,,,,,,2005,2453554.5,184,1650,8.0,Children,2453554.5,184.0,1800,0.5,B,34.15388889,-117.84111111,14.0,MISSING/NOT SPECIFIED,CA,,,
89,91,FS-1419075,FED,FS-FIRESTAT,FS,USORUMF,Umatilla National Forest,0614,Umatilla National Forest,4,501-048,BE07,DUNCANS RIDGE,,,,,,2005,2453542.5,172,1648,1.0,Lightning,2453542.5,172.0,1944,0.1,A,44.98861111,-118.93888889,5.0,USFS,OR,23,023,Grant
90,92,FS-1419077,FED,FS-FIRESTAT,FS,USCAENF,Eldorado National Forest,0503,Eldorado National Forest,4,2,BV7R,ROBIN,,,,,,2005,2453546.5,176,0905,5.0,Debris Burning,2453546.5,176.0,1332,0.1,A,38.98388889,-120.8025,13.0,STATE OR PRIVATE,CA,,,
91,93,FS-1419081,FED,FS-FIRESTAT,FS,USSDBKF,Black Hills National Forest,0203,Black Hills National Forest,1,PA1,BJ0K,VICTORIA,,,,,,2005,2453372.5,2,0909,4.0,Campfire,2453372.5,2.0,1010,0.1,A,44.01277778,-103.3825,5.0,USFS,SD,103,103,Pennington
92,94,FS-1419086,FED,FS-FIRESTAT,FS,USNMSNF,Santa Fe National Forest,0310,Santa Fe National Forest,15,01,BEY5,MULLETT,,,,,,2005,2453517.5,147,1700,1.0,Lightning,2453518.5,148.0,1215,0.1,A,36.01666667,-106.71666667,5.0,USFS,NM,43,043,Sandoval
93,95,FS-1419087,FED,FS-FIRESTAT,FS,USORFWF,Fremont-Winema National Forest,0602,Fremont-Winema National Forest,5,301,BE0X,SNAG  124,,,,,,2005,2453546.5,176,0950,1.0,Lightning,2453546.5,176.0,1545,0.1,A,42.62083333,-120.845,5.0,USFS,OR,37,037,Lake
94,96,FS-1419088,FED,FS-FIRESTAT,FS,USAZCNF,Coronado National Forest,0305,Coronado National Forest,65,003,B0EV,FRY MESA,,,,,,2005,2453565.5,195,1810,7.0,Arson,2453565.5,195.0,1900,0.1,A,32.75361111,-109.83138889,5.0,USFS,AZ,9,009,Graham
95,97,FS-1419089,FED,FS-FIRESTAT,FS,USNVHTF,Humboldt-Toiyabe National Forest,0417,Humboldt-Toiyabe National Forest,1,M01,BEZ8,HOT SPRINGS,,,,,,2005,2453496.5,126,1145,5.0,Debris Burning,2453499.5,129.0,1330,0.1,A,38.70027778,-119.84055556,13.0,STATE OR PRIVATE,CA,3,003,Alpine
96,98,FS-1419090,FED,FS-FIRESTAT,FS,USNVHTF,Humboldt-Toiyabe National Forest,0417,Humboldt-Toiyabe National Forest,2,006,BZB0,SHINGLE,,,,,,2005,2453559.5,189,0015,7.0,Arson,2453559.5,189.0,0045,0.01,A,38.45361111,-119.45861111,5.0,USFS,CA,51,051,Mono
97,99,FS-1419093,FED,FS-FIRESTAT,FS,USNMCAF,Carson National Forest,0302,Carson National Forest,64,064,F064,CEDAR SPRINGS,,,,,,2005,2453532.5,162,1901,1.0,Lightning,2453532.5,162.0,2000,0.1,A,36.66944444,-107.25361111,5.0,USFS,NM,39,039,Rio Arriba
98,100,FS-1419095,FED,FS-FIRESTAT,FS,USNMCAF,Carson National Forest,0302,Carson National Forest,84,084,F084,BUZZARD,,,,,,2005,2453543.5,173,1820,1.0,Lightning,2453543.5,173.0,2315,0.25,A,36.87638889,-107.21916667,5.0,USFS,NM,39,039,Rio Arriba
99,101,FS-1419096,FED,FS-FIRESTAT,FS,USMTKNF,Kootenai National Forest,0114,Kootenai National Forest,34,10,BXR6,STRAWBERRY,,,,,,2005,2453553.5,183,1300,6.0,Railroad,2453553.5,183.0,1435,0.1,A,48.45833333,-115.66666667,5.0,USFS,MT,53,053,Lincoln
100,102,FS-1419098,FED,FS-FIRESTAT,FS,USMTKNF,Kootenai National Forest,0114,Kootenai National Forest,35,011,BXR7,RACETRACK #3,,,,,,2005,2453553.5,183,1340,4.0,Campfire,2453553.5,183.0,1404,0.1,A,48.40833333,-115.55833333,5.0,USFS,MT,53,053,Lincoln
101,103,FS-1419101,FED,FS-FIRESTAT,FS,USMTKNF,Kootenai National Forest,0114,Kootenai National Forest,13,006,BP75,DEEP CREEK,,,,,,2005,2453485.5,115,1534,5.0,Debris Burning,2453485.5,115.0,1730,1.2,B,48.76666667,-114.87833333,13.0,STATE OR PRIVATE,MT,53,053,Lincoln
102,104,FS-1419102,FED,FS-FIRESTAT,FS,USMTKNF,Kootenai National Forest,0114,Kootenai National Forest,54,021,B0EZ,PIPE FLATS,,,,,,2005,2453565.5,195,2200,8.0,Children,2453566.5,196.0,0800,0.1,A,48.41472222,-115.54805556,5.0,USFS,MT,53,053,Lincoln
103,105,FS-1419104,FED,FS-FIRESTAT,FS,USMTKNF,Kootenai National Forest,0114,Kootenai National Forest,49,018,BZ0S,RACETRACK #8,,,,,,2005,2453561.5,191,1000,4.0,Campfire,2453561.5,191.0,2035,0.1,A,48.40833333,-115.55833333,5.0,USFS,MT,53,053,Lincoln
104,106,FS-1419106,FED,FS-FIRESTAT,FS,USWYSHF,Shoshone National Forest,0214,Shoshone National Forest,1,WY-SHF-048,BEX2,CROSS,,,,,,2005,2453546.5,176,0800,1.0,Lightning,2453547.5,177.0,1320,0.1,A,43.64527778,-109.9125,5.0,USFS,WY,13,013,Fremont
105,107,FS-1419113,FED,FS-FIRESTAT,FS,USCACNF,Cleveland National Forest,0502,Cleveland National Forest,9,523,BE0C,LOOKOUT,,,,,,2005,2453487.5,117,1700,9.0,Miscellaneous,2453487.5,117.0,1715,0.1,A,33.66666667,-117.37638889,13.0,STATE OR PRIVATE,CA,,,
106,108,FS-1419114,FED,FS-FIRESTAT,FS,USNVHTF,Humboldt-Toiyabe National Forest,0417,Humboldt-Toiyabe National Forest,19,D2-12-05,BEZ8,DEVIL'S GATE,,,,,,2005,2453569.5,199,1600,1.0,Lightning,2453570.5,200.0,1800,0.1,A,38.35361111,-119.37805556,5.0,USFS,CA,51,051,Mono
107,109,FS-1419115,FED,FS-FIRESTAT,FS,USAROUF,Ouachita National Forest,0809,Ouachita National Forest,28,P8BW35,BW35,GRAND VISTA FIRE,,,,,,2005,2453550.5,180,0900,9.0,Miscellaneous,2453550.5,180.0,1600,0.1,A,34.65472222,-94.28638889,5.0,USFS,AR,,,
108,110,FS-1419124,FED,FS-FIRESTAT,FS,USNVHTF,Humboldt-Toiyabe National Forest,0417,Humboldt-Toiyabe National Forest,16,D2-08-2005,B0JV,ANCHORITE,,,,,,2005,2453566.5,196,1630,1.0,Lightning,2453566.5,196.0,2130,0.25,A,38.17916667,-118.71166667,5.0,USFS,NV,21,021,Mineral
109,111,FS-1419130,FED,FS-FIRESTAT,FS,USCACNF,Cleveland National Forest,0502,Cleveland National Forest,21,527,BE0C,SADDLE,,,,,,2005,2453540.5,170,1500,2.0,Equipment Use,2453540.5,170.0,1505,10.0,C,33.71888889,-117.43361111,13.0,STATE OR PRIVATE,CA,,,
110,112,FS-1419134,FED,FS-FIRESTAT,FS,USCASNF,Sierra National Forest,0515,Sierra National Forest,2,01,BGJ2,PETERSON,,,,,,2005,2453517.5,147,2015,2.0,Equipment Use,2453517.5,147.0,2058,0.1,A,37.04416667,-119.34388889,13.0,STATE OR PRIVATE,CA,,,
111,114,FS-1419142,FED,FS-FIRESTAT,FS,USNVHTF,Humboldt-Toiyabe National Forest,0417,Humboldt-Toiyabe National Forest,18,D2-11-2005,B0TS,SUMMIT,,,FS-0417-018-20050715,SUMMIT,,2005,2453568.5,198,1630,1.0,Lightning,2453569.5,199.0,2000,80.0,C,38.25555556,-118.48611111,14.0,MISSING/NOT SPECIFIED,NV,21,021,Mineral
112,115,FS-1419147,FED,FS-FIRESTAT,FS,USORMAF,Malheur National Forest,0604,Malheur National Forest,11,EC 01,BL4P,#2029,,,,,,2005,2453527.5,157,1240,1.0,Lightning,2453528.5,158.0,1146,1.0,B,43.99138889,-118.73277778,5.0,USFS,OR,25,025,Harney
113,116,FS-1419148,FED,FS-FIRESTAT,FS,USNENBF,Nebraska National Forest,0207,Nebraska National Forest,5,1,BWR9,DUCK CREEK,,,,,,2005,2453548.5,178,1200,6.0,Railroad,2453548.5,178.0,1603,0.61,B,43.065,-103.66055556,5.0,USFS,SD,47,047,Fall River
114,117,FS-1419150,FED,FS-FIRESTAT,FS,USCOPSF,Pike and San Isabel National Forest,0212,Pike San Isabel National Forest,54,001,BEX1,8GN,,,,,,2005,2453558.5,188,1907,1.0,Lightning,2453558.5,188.0,2130,80.0,C,37.345,-102.80583333,5.0,USFS,CO,,,
115,118,FS-1419152,FED,FS-FIRESTAT,FS,USMTKNF,Kootenai National Forest,0114,Kootenai National Forest,55,22,B0E8,RACE TRACK #9,,,,,,2005,2453566.5,196,0810,4.0,Campfire,2453566.5,196.0,0816,0.1,A,48.40777778,-115.55777778,13.0,STATE OR PRIVATE,MT,53,053,Lincoln
116,119,FS-1419153,FED,FS-FIRESTAT,FS,USNENBF,Nebraska National Forest,0207,Nebraska National Forest,8,3,BEW8,THOMPSON BUTTE,,,,,,2005,2453567.5,197,1715,1.0,Lightning,2453568.5,198.0,1525,119.0,D,43.89916667,-102.95472222,5.0,USFS,SD,103,103,Pennington
117,120,FS-1419156,FED,FS-FIRESTAT,FS,USNENBF,Nebraska National Forest,0207,Nebraska National Forest,7,2,BEW8,CHARLES DRAW,,,,,,2005,2453567.5,197,1730,1.0,Lightning,2453567.5,197.0,2045,119.0,D,43.89277778,-102.94805556,5.0,USFS,SD,103,103,Pennington
118,121,FS-1419158,FED,FS-FIRESTAT,FS,USORMAF,Malheur National Forest,0604,Malheur National Forest,12,EC-02,BT8Z,RODEO FIRE,,,,,,2005,2453534.5,164,1605,4.0,Campfire,2453534.5,164.0,1814,0.1,A,43.78333333,-119.0,5.0,USFS,OR,25,025,Harney
119,122,FS-1419159,FED,FS-FIRESTAT,FS,USORUMF,Umatilla National Forest,0614,Umatilla National Forest,5,602-079,BE07,SKYLINE,,,,,,2005,2453567.5,197,1354,4.0,Campfire,2453567.5,197.0,1600,0.1,A,46.08055556,-117.89083333,5.0,USFS,WA,13,013,Columbia
120,123,FS-1419162,FED,FS-FIRESTAT,FS,USNMSNF,Santa Fe National Forest,0310,Santa Fe National Forest,20,02,BEY5,TELEPHONE,,,,,,2005,2453519.5,149,1300,1.0,Lightning,2453520.5,150.0,1730,0.1,A,35.95,-106.71666667,5.0,USFS,NM,43,043,Sandoval
121,124,FS-1419164,FED,FS-FIRESTAT,FS,USNMSNF,Santa Fe National Forest,0310,Santa Fe National Forest,31,03,BEY5,JP,,,,,,2005,2453532.5,162,2000,1.0,Lightning,2453535.5,165.0,1700,0.1,A,35.91666667,-106.8,5.0,USFS,NM,43,043,Sandoval
122,125,FS-1419166,FED,FS-FIRESTAT,FS,USNMSNF,Santa Fe National Forest,0310,Santa Fe National Forest,37,04,BEY5,HAMMER,,,,,,2005,2453535.5,165,1345,1.0,Lightning,2453537.5,167.0,1400,0.1,A,36.03333333,-106.98333333,5.0,USFS,NM,43,043,Sandoval
123,126,FS-1419169,FED,FS-FIRESTAT,FS,USMTKNF,Kootenai National Forest,0114,Kootenai National Forest,1,1,BEW1,PETE POWER,,,,,,2005,2453427.5,57,1925,9.0,Miscellaneous,2453427.5,57.0,2000,0.1,A,48.83083333,-115.67638889,13.0,STATE OR PRIVATE,MT,53,053,Lincoln
124,127,FS-1419170,FED,FS-FIRESTAT,FS,USMTKNF,Kootenai National Forest,0114,Kootenai National Forest,11,03,BP6W,EAST SIDE,,,,,,2005,2453485.5,115,1155,5.0,Debris Burning,2453485.5,115.0,1400,0.9,B,48.53888889,-115.93472222,13.0,STATE OR PRIVATE,MT,53,053,Lincoln
125,128,FS-1419171,FED,FS-FIRESTAT,FS,USMTKNF,Kootenai National Forest,0114,Kootenai National Forest,8,2,BPQ7,32 MILE YAAK,,,,,,2005,2453480.5,110,1720,5.0,Debris Burning,2453480.5,110.0,2130,15.4,C,48.84694444,-115.66222222,13.0,STATE OR PRIVATE,MT,53,053,Lincoln
126,129,FS-1419174,FED,FS-FIRESTAT,FS,USORMAF,Malheur National Forest,0604,Malheur National Forest,13,03,B24P,CRAFT CABIN,,,,,,2005,2453540.5,170,1130,1.0,Lightning,2453540.5,170.0,1623,0.25,A,43.80888889,-118.7275,5.0,USFS,OR,25,025,Harney
127,130,FS-1419175,FED,FS-FIRESTAT,FS,USORMAF,Malheur National Forest,0604,Malheur National Forest,14,EC 04,BL4P,#2045,,,,,,2005,2453540.5,170,1739,1.0,Lightning,2453540.5,170.0,2137,0.06,A,43.72472222,-119.66055556,5.0,USFS,OR,25,025,Harney
128,131,FS-1419176,FED,FS-FIRESTAT,FS,USORMAF,Malheur National Forest,0604,Malheur National Forest,15,EC 05,BL4P,# 2046,,,,,,2005,2453540.5,170,1755,1.0,Lightning,2453541.5,171.0,1429,0.1,A,43.77222222,-119.65972222,5.0,USFS,OR,25,025,Harney
129,132,FS-1419177,FED,FS-FIRESTAT,FS,USORMAF,Malheur National Forest,0604,Malheur National Forest,16,EC 06,BL4P,#2047,,,,,,2005,2453541.5,171,1054,1.0,Lightning,2453541.5,171.0,1504,0.01,A,43.81166667,-119.68666667,5.0,USFS,OR,25,025,Harney
130,133,FS-1419178,FED,FS-FIRESTAT,FS,USORMAF,Malheur National Forest,0604,Malheur National Forest,17,EC 07,BL4P,# 2048,,,,,,2005,2453541.5,171,1301,1.0,Lightning,2453542.5,172.0,1430,0.25,A,43.83583333,-119.74138889,5.0,USFS,OR,25,025,Harney
131,134,FS-1419179,FED,FS-FIRESTAT,FS,USNMCAF,Carson National Forest,0302,Carson National Forest,92,092,F092,OLD R.D.,,,,,,2005,2453545.5,175,1322,2.0,Equipment Use,2453545.5,175.0,1630,1.0,B,36.69166667,-107.38583333,5.0,USFS,NM,39,039,Rio Arriba
132,135,FS-1419180,FED,FS-FIRESTAT,FS,USNVHTF,Humboldt-Toiyabe National Forest,0417,Humboldt-Toiyabe National Forest,4,HTF-918,BEZ8,WILLOW,,,,,,2005,2453538.5,168,1530,1.0,Lightning,2453538.5,168.0,2030,0.5,B,38.83972222,-119.88638889,5.0,USFS,CA,3,003,Alpine
133,136,FS-1419182,FED,FS-FIRESTAT,FS,USNMCAF,Carson National Forest,0302,Carson National Forest,109,109,F109,ULIBARRI,,,,,,2005,2453549.5,179,1900,1.0,Lightning,2453550.5,180.0,1000,0.1,A,36.87138889,-107.24777778,5.0,USFS,NM,39,039,Rio Arriba
134,137,FS-1419183,FED,FS-FIRESTAT,FS,USNVHTF,Humboldt-Toiyabe National Forest,0417,Humboldt-Toiyabe National Forest,3,838,BTV1,PEAVINE,,,,,,2005,2453527.5,157,1415,7.0,Arson,2453527.5,157.0,1900,0.1,A,39.64972222,-119.86666667,5.0,USFS,NV,31,031,Washoe
135,138,FS-1419185,FED,FS-FIRESTAT,FS,USNMCAF,Carson National Forest,0302,Carson National Forest,118,118,F118,CABRESTO,,,,,,2005,2453551.5,181,1050,1.0,Lightning,2453551.5,181.0,1502,0.1,A,36.88388889,-107.29083333,5.0,USFS,NM,39,039,Rio Arriba
136,139,FS-1419186,FED,FS-FIRESTAT,FS,USNMCAF,Carson National Forest,0302,Carson National Forest,200,118,F200,BANCOS,,,,,,2005,2453565.5,195,1556,1.0,Lightning,2453567.5,197.0,1642,30.0,C,36.93472222,-107.34972222,5.0,USFS,NM,39,039,Rio Arriba
137,140,FS-1419187,FED,FS-FIRESTAT,FS,USNMCAF,Carson National Forest,0302,Carson National Forest,212,212,F212,GOMEZ TANK,,,,,,2005,2453566.5,196,1550,1.0,Lightning,2453566.5,196.0,1730,0.1,A,36.74194444,-107.2125,5.0,USFS,NM,39,039,Rio Arriba
138,141,FS-1419188,FED,FS-FIRESTAT,FS,USNMCAF,Carson National Forest,0302,Carson National Forest,228,228,F228,VALENCIA,,,,,,2005,2453568.5,198,1338,1.0,Lightning,2453569.5,199.0,1240,0.5,B,36.65944444,-107.19638889,5.0,USFS,NM,39,039,Rio Arriba
139,142,FS-1419189,FED,FS-FIRESTAT,FS,USNMCAF,Carson National Forest,0302,Carson National Forest,229,229,F229,BUCK,,,,,,2005,2453568.5,198,1510,1.0,Lightning,2453569.5,199.0,1030,0.5,B,36.64583333,-107.22694444,5.0,USFS,NM,39,039,Rio Arriba
140,144,FS-1419199,FED,FS-FIRESTAT,FS,USNMSNF,Santa Fe National Forest,0310,Santa Fe National Forest,1,001,BK2D,FIRST,,,,,,2005,2453431.5,61,1525,5.0,Debris Burning,2453431.5,61.0,1615,0.1,A,36.09666667,-106.16166667,5.0,USFS,NM,39,039,Rio Arriba
141,145,FS-1419202,FED,FS-FIRESTAT,FS,USMTKNF,Kootenai National Forest,0114,Kootenai National Forest,57,024,B0SS,GRANTIE CREEK BRIDGE,,,,,,2005,2453568.5,198,1000,4.0,Campfire,2453568.5,198.0,1030,0.1,A,48.305,-115.54166667,5.0,USFS,MT,53,053,Lincoln
142,146,FS-1419204,FED,FS-FIRESTAT,FS,USMTKNF,Kootenai National Forest,0114,Kootenai National Forest,56,023,B0SR,RACE TRACK 10,,,,,,2005,2453567.5,197,0825,4.0,Campfire,2453567.5,197.0,0900,0.1,A,48.40805556,-115.55833333,13.0,STATE OR PRIVATE,MT,53,053,Lincoln
143,147,FS-1419206,FED,FS-FIRESTAT,FS,USMTKNF,Kootenai National Forest,0114,Kootenai National Forest,58,025,B01B,RACE TRACK #11,,,,,,2005,2453570.5,200,0815,4.0,Campfire,2453570.5,200.0,0836,0.1,A,48.40805556,-115.50805556,5.0,USFS,MT,53,053,Lincoln
144,148,FS-1419209,FED,FS-FIRESTAT,FS,USMTCGF,Custer Gallatin National Forest,0108,Custer National Forest,1,02-05-01,,400 RANCH,,,,,,2004,2453314.5,310,1200,9.0,Miscellaneous,2453314.5,310.0,1600,0.1,A,45.1,-109.3125,5.0,USFS,MT,9,009,Carbon
145,149,FS-1419210,FED,FS-FIRESTAT,FS,USMTKNF,Kootenai National Forest,0114,Kootenai National Forest,52,20,BZ9W,SCENERY,,,,,,2005,2453564.5,194,1745,4.0,Campfire,2453565.5,195.0,1240,0.3,B,48.41944444,-115.65777778,5.0,USFS,MT,53,053,Lincoln
146,150,FS-1419212,FED,FS-FIRESTAT,FS,USCASQF,Sequoia National Forest,0513,Sequoia National Forest,1,01,BE0P,DOGWOOD,,,,,,2005,2453492.5,122,1628,9.0,Miscellaneous,2453492.5,122.0,1700,0.1,A,35.76888889,-118.43527778,13.0,STATE OR PRIVATE,CA,,,
147,151,FS-1419214,FED,FS-FIRESTAT,FS,USNVHTF,Humboldt-Toiyabe National Forest,0417,Humboldt-Toiyabe National Forest,5,942,BU9L,CLEAR CREEK,,,,,,2005,2453542.5,172,1141,9.0,Miscellaneous,2453542.5,172.0,1500,1.0,B,39.11666667,-119.845,13.0,STATE OR PRIVATE,NV,5,005,Douglas
148,152,FS-1419215,FED,FS-FIRESTAT,FS,USNMSNF,Santa Fe National Forest,0310,Santa Fe National Forest,22,01,BEY5,SAWYER,,,,,,2005,2453521.5,151,1200,1.0,Lightning,2453521.5,151.0,1225,0.75,B,35.70111111,-105.70916667,5.0,USFS,NM,47,047,San Miguel
149,153,FS-1419231,FED,FS-FIRESTAT,FS,USNVHTF,Humboldt-Toiyabe National Forest,0417,Humboldt-Toiyabe National Forest,21,D2-14-2005,B1MV,BUCKEYE,,,,,,2005,2453573.5,203,1600,1.0,Lightning,2453573.5,203.0,1955,0.1,A,38.22666667,-119.34666667,5.0,USFS,CA,51,051,Mono
150,154,FS-1419232,FED,FS-FIRESTAT,FS,USNVHTF,Humboldt-Toiyabe National Forest,0417,Humboldt-Toiyabe National Forest,26,D2-19-2005,B1LY,RISUE 5,,,,,,2005,2453573.5,203,1118,1.0,Lightning,2453573.5,203.0,1800,3.0,B,38.60222222,-119.42972222,5.0,USFS,NV,5,005,Douglas
151,155,FS-1419238,FED,FS-FIRESTAT,FS,USIDCTF,Caribou-Targhee National Forest,0415,Caribou-Targhee National Forest,9,52-01,B0P2,LOOP,,,,,,2005,2453567.5,197,1930,9.0,Miscellaneous,2453567.5,197.0,2200,0.1,A,44.48861111,-111.25611111,5.0,USFS,ID,43,043,Fremont
152,156,FS-1419239,FED,FS-FIRESTAT,FS,USNVHTF,Humboldt-Toiyabe National Forest,0417,Humboldt-Toiyabe National Forest,24,D2-17-2005,BEZ8,SUMMERS,,,,,,2005,2453572.5,202,1700,1.0,Lightning,2453572.5,202.0,1800,0.1,A,38.16888889,-119.31694444,5.0,USFS,CA,51,051,Mono
153,157,FS-1419242,FED,FS-FIRESTAT,FS,USNMCAF,Carson National Forest,0302,Carson National Forest,230,230,F230,GURULE,,,,,,2005,2453568.5,198,1705,1.0,Lightning,2453570.5,200.0,1334,0.5,B,36.92277778,-107.23638889,5.0,USFS,NM,39,039,Rio Arriba
154,158,FS-1419243,FED,FS-FIRESTAT,FS,USCALPF,Los Padres National Forest,0507,Los Padres National Forest,1,001,BKB6,APACHE,,,,,,2005,2453411.5,41,1337,5.0,Debris Burning,2453411.5,41.0,1607,3.0,B,34.74833333,-119.41027778,13.0,STATE OR PRIVATE,CA,,,
155,159,FS-1419245,FED,FS-FIRESTAT,FS,USCALPF,Los Padres National Forest,0507,Los Padres National Forest,2,002,BKD8,TREEBONE,,,,,,2005,2453415.5,45,1640,4.0,Campfire,2453415.5,45.0,1900,0.1,A,35.88361111,-121.45694444,13.0,STATE OR PRIVATE,CA,,,
156,160,FS-1419246,FED,FS-FIRESTAT,FS,USCALPF,Los Padres National Forest,0507,Los Padres National Forest,4,004,BS1X,MARBLE,,,,,,2005,2453518.5,148,1700,4.0,Campfire,2453518.5,148.0,1740,0.1,A,36.21805556,-121.49916667,5.0,USFS,CA,,,
157,161,FS-1419247,FED,FS-FIRESTAT,FS,USCALPF,Los Padres National Forest,0507,Los Padres National Forest,3,003,BSS8,WHITE,,,,,,2005,2453510.5,140,1915,2.0,Equipment Use,2453510.5,140.0,2100,0.1,A,36.44833333,-121.58277778,5.0,USFS,CA,,,
158,162,FS-1419248,FED,FS-FIRESTAT,FS,USNVHTF,Humboldt-Toiyabe National Forest,0417,Humboldt-Toiyabe National Forest,25,D2-18-2005,B1LU,SECRET,,,,,,2005,2453573.5,203,1000,1.0,Lightning,2453574.5,204.0,1500,0.5,B,38.29444444,-119.54,5.0,USFS,CA,51,051,Mono
159,163,FS-1419249,FED,FS-FIRESTAT,FS,USNVHTF,Humboldt-Toiyabe National Forest,0417,Humboldt-Toiyabe National Forest,22,D2 15 2005,B1TF,EAGLE,,,,,,2005,2453575.5,205,1630,1.0,Lightning,2453575.5,205.0,1745,0.1,A,38.22222222,-119.38694444,5.0,USFS,CA,51,051,Mono
160,164,FS-1419260,FED,FS-FIRESTAT,FS,USNVHTF,Humboldt-Toiyabe National Forest,0417,Humboldt-Toiyabe National Forest,27,D2-20-2005,B09V,DEVIL,,,,,,2005,2453571.5,201,1000,1.0,Lightning,2453572.5,202.0,1136,0.1,A,38.3575,-119.36111111,5.0,USFS,CA,51,051,Mono
161,165,FS-1419266,FED,FS-FIRESTAT,FS,USNMCAF,Carson National Forest,0302,Carson National Forest,249,249,F249,WILD,,,,,,2005,2453569.5,199,1522,1.0,Lightning,2453570.5,200.0,1800,0.2,A,36.90972222,-107.25583333,5.0,USFS,NM,39,039,Rio Arriba
162,166,FS-1419267,FED,FS-FIRESTAT,FS,USNMCAF,Carson National Forest,0302,Carson National Forest,283,283,F283,COTTONWOOD,,,,,,2005,2453572.5,202,1636,1.0,Lightning,2453572.5,202.0,2012,0.1,A,36.94111111,-107.32,5.0,USFS,NM,39,039,Rio Arriba
163,167,FS-1419268,FED,FS-FIRESTAT,FS,USCAINF,Inyo National Forest,0504,Inyo National Forest,13,INF640,BZ9E,SHERWIN,,,,,,2005,2453564.5,194,1523,2.0,Equipment Use,2453564.5,194.0,1600,0.1,A,37.53055556,-118.62722222,5.0,USFS,CA,,,
164,168,FS-1419271,FED,FS-FIRESTAT,FS,USCAINF,Inyo National Forest,0504,Inyo National Forest,22,INF690,BE0E,VISTA,,,,,,2005,2453572.5,202,0630,1.0,Lightning,2453572.5,202.0,0900,0.1,A,37.515,-118.59833333,5.0,USFS,CA,,,
165,169,FS-1419272,FED,FS-FIRESTAT,FS,USMTKNF,Kootenai National Forest,0114,Kootenai National Forest,59,26,B1QL,RACE TRACK #12,,,,,,2005,2453574.5,204,0805,4.0,Campfire,2453574.5,204.0,0825,0.1,A,48.40777778,-115.47527778,13.0,STATE OR PRIVATE,MT,53,053,Lincoln
166,170,FS-1419275,FED,FS-FIRESTAT,FS,USMTKNF,Kootenai National Forest,0114,Kootenai National Forest,60,027,B1VK,RACE TRACK #13,,,,,,2005,2453575.5,205,0835,4.0,Campfire,2453575.5,205.0,0900,0.1,A,48.4075,-115.55861111,13.0,STATE OR PRIVATE,MT,53,053,Lincoln
167,171,FS-1419276,FED,FS-FIRESTAT,FS,USNVHTF,Humboldt-Toiyabe National Forest,0417,Humboldt-Toiyabe National Forest,38,1282,B1MU,CLEAR CREEK 5,,,,,,2005,2453573.5,203,1310,1.0,Lightning,2453573.5,203.0,2000,0.5,B,39.08555556,-119.87416667,5.0,USFS,NV,510,510,Carson City
168,172,FS-1419278,FED,FS-FIRESTAT,FS,USIDCTF,Caribou-Targhee National Forest,0415,Caribou-Targhee National Forest,3,57-07,BXN0,EAST MINK,,,,,,2005,2453553.5,183,1000,4.0,Campfire,2453553.5,183.0,1131,0.1,A,42.73638889,-112.38444444,5.0,USFS,ID,5,005,Bannock
169,173,FS-1419280,FED,FS-FIRESTAT,FS,USORMAF,Malheur National Forest,0604,Malheur National Forest,18,EC 08,BL4P,BLUE CREEK FIRE,,,,,,2005,2453541.5,171,1528,1.0,Lightning,2453541.5,171.0,2100,0.25,A,43.84527778,-119.36583333,5.0,USFS,OR,25,025,Harney
170,174,FS-1419281,FED,FS-FIRESTAT,FS,USCASTF,Stanislaus National Forest,0516,Stanislaus National Forest,4,002,BT5M,DUCKWALL,,,,,,2005,2453532.5,162,1756,5.0,Debris Burning,2453533.5,163.0,0930,2.0,B,37.94027778,-120.12166667,13.0,STATE OR PRIVATE,CA,,,
171,175,FS-1419287,FED,FS-FIRESTAT,FS,USNVHTF,Humboldt-Toiyabe National Forest,0417,Humboldt-Toiyabe National Forest,39,1322,B17J,WOODFORDS,,,,,,2005,2453577.5,207,1609,9.0,Miscellaneous,2453577.5,207.0,1648,0.1,A,38.76388889,-119.85388889,5.0,USFS,CA,3,003,Alpine
172,176,FS-1419291,FED,FS-FIRESTAT,FS,USIDCTF,Caribou-Targhee National Forest,0415,Caribou-Targhee National Forest,5,57-02,BX5E,INMAN,,,,,,2005,2453555.5,185,1245,4.0,Campfire,2453555.5,185.0,1330,0.1,A,42.83972222,-112.17666667,5.0,USFS,ID,5,005,Bannock
173,177,FS-1419292,FED,FS-FIRESTAT,FS,USIDCTF,Caribou-Targhee National Forest,0415,Caribou-Targhee National Forest,6,57-03,BX7W,WHITEROCK,,,,,,2005,2453555.5,185,1400,4.0,Campfire,2453555.5,185.0,2030,0.1,A,42.69138889,-112.36861111,5.0,USFS,ID,5,005,Bannock
174,178,FS-1419293,FED,FS-FIRESTAT,FS,USIDCTF,Caribou-Targhee National Forest,0415,Caribou-Targhee National Forest,7,57-04,BY8L,CLEAR CREEK,,,,,,2005,2453558.5,188,1130,4.0,Campfire,2453558.5,188.0,1230,0.1,A,42.73638889,-112.07222222,5.0,USFS,ID,5,005,Bannock
175,179,FS-1419296,FED,FS-FIRESTAT,FS,USNVHTF,Humboldt-Toiyabe National Forest,0417,Humboldt-Toiyabe National Forest,6,1030,BW4J,PINEBRUSH,,,,,,2005,2453549.5,179,1930,4.0,Campfire,2453550.5,180.0,0100,1.0,B,39.47972222,-119.85138889,5.0,USFS,NV,31,031,Washoe
176,180,FS-1419298,FED,FS-FIRESTAT,FS,USNMGNF,Gila National Forest,0306,Gila National Forest,8,001,BYE1,TURKEY,,,,,,2005,2453517.5,147,1430,1.0,Lightning,2453519.5,149.0,1800,0.1,A,33.36861111,-108.60055556,5.0,USFS,NM,3,003,Catron
177,181,FS-1419301,FED,FS-FIRESTAT,FS,USCALPF,Los Padres National Forest,0507,Los Padres National Forest,8,008,BV3K,FAIRVIEW,,,,,,2005,2453544.5,174,1551,2.0,Equipment Use,2453544.5,174.0,1800,4.2,B,34.46666667,-119.82833333,14.0,MISSING/NOT SPECIFIED,CA,,,
178,182,FS-1419302,FED,FS-FIRESTAT,FS,USCALPF,Los Padres National Forest,0507,Los Padres National Forest,9,009,BXF4,CHIMINEAS,CA-LPF-1353,CHIMINEAS,,,,2005,2453552.5,182,1330,9.0,Miscellaneous,2453554.5,184.0,1800,90.0,C,35.13583333,-120.0025,5.0,USFS,CA,,,
179,183,FS-1419303,FED,FS-FIRESTAT,FS,USCALPF,Los Padres National Forest,0507,Los Padres National Forest,11,011,BX1V,SEVEN,,,,,,2005,2453554.5,184,1415,4.0,Campfire,2453554.5,184.0,1710,0.1,A,34.855,-119.07388889,5.0,USFS,CA,,,
180,184,FS-1419304,FED,FS-FIRESTAT,FS,USCALPF,Los Padres National Forest,0507,Los Padres National Forest,14,014,BZ4S,MARCOS,,,,,,2005,2453562.5,192,1702,4.0,Campfire,2453562.5,192.0,1834,0.1,A,34.49638889,-119.85111111,5.0,USFS,CA,,,
181,185,FS-1419306,FED,FS-FIRESTAT,FS,USCALPF,Los Padres National Forest,0507,Los Padres National Forest,15,015,B0K1,TASSAJARA 1,,,,,,2005,2453567.5,197,0315,3.0,Smoking,2453568.5,198.0,1500,0.3,B,36.2425,-121.55111111,5.0,USFS,CA,,,
182,186,FS-1419307,FED,FS-FIRESTAT,FS,USCALPF,Los Padres National Forest,0507,Los Padres National Forest,16,016,B0KL,TASSAJARA 2,,,,,,2005,2453567.5,197,0545,3.0,Smoking,2453567.5,197.0,1830,0.1,A,36.2425,-121.54805556,5.0,USFS,CA,,,
183,187,FS-1419308,FED,FS-FIRESTAT,FS,USCALPF,Los Padres National Forest,0507,Los Padres National Forest,17,017,50YT,SENIOR,,,,,,2005,2453569.5,199,1456,9.0,Miscellaneous,2453569.5,199.0,1700,1.0,B,34.47138889,-119.195,13.0,STATE OR PRIVATE,CA,,,
184,188,FS-1419309,FED,FS-FIRESTAT,FS,USAZASF,Apache-Sitgreaves National Forest,0301,Apache-Sitgreaves National Forest,14,5,BEX6,HANKS DRAW,,,,,,2005,2453517.5,147,1530,1.0,Lightning,2453518.5,148.0,1200,0.1,A,34.45166667,-110.66611111,5.0,USFS,AZ,17,017,Navajo
185,189,FS-1419310,FED,FS-FIRESTAT,FS,USAZASF,Apache-Sitgreaves National Forest,0301,Apache-Sitgreaves National Forest,15,6,BEX6,WILLOW,,,,,,2005,2453518.5,148,1215,1.0,Lightning,2453518.5,148.0,1415,0.1,A,34.36361111,-110.40416667,5.0,USFS,AZ,17,017,Navajo
186,190,FS-1419311,FED,FS-FIRESTAT,FS,USAZTNF,Tonto National Forest,0312,Tonto National Forest,60,2,BEY6,BACHELOR,AZ-TNF-105,THREE FIRE COMPLEX,,,THREE FIRE COMPLEX,2005,2453542.5,172,1400,1.0,Lightning,2453542.5,172.0,1600,2.0,B,33.71611111,-111.21777778,5.0,USFS,AZ,7,007,Gila
187,191,FS-1419312,FED,FS-FIRESTAT,FS,USAZTNF,Tonto National Forest,0312,Tonto National Forest,82,5,BEY6,PYLON,,,,,,2005,2453554.5,184,1700,9.0,Miscellaneous,2453554.5,184.0,2130,2.0,B,33.95972222,-111.39805556,5.0,USFS,AZ,7,007,Gila
188,192,FS-1419313,FED,FS-FIRESTAT,FS,USAZTNF,Tonto National Forest,0312,Tonto National Forest,62,4,BVR2,THREE,AZ-TNF-105,THREE FIRE COMPLEX,AZ3372311127120050621,THREE FIRE COMPLEX (THREE),THREE FIRE COMPLEX,2005,2453542.5,172,1400,1.0,Lightning,2453550.5,180.0,1800,16100.0,G,33.72333333,-111.275,5.0,USFS,AZ,7,007,Gila
189,193,FS-1419314,FED,FS-FIRESTAT,FS,USNMCAF,Carson National Forest,0302,Carson National Forest,284,284,F284,MARTINEZ,,,,,,2005,2453572.5,202,1646,1.0,Lightning,2453573.5,203.0,1140,0.1,A,36.89972222,-107.29444444,5.0,USFS,NM,39,039,Rio Arriba
190,194,FS-1419315,FED,FS-FIRESTAT,FS,USNMCAF,Carson National Forest,0302,Carson National Forest,279,279,F279,MISSISSIPPI,,,,,,2005,2453572.5,202,1923,1.0,Lightning,2453573.5,203.0,1140,0.1,A,36.9,-107.32805556,5.0,USFS,NM,39,039,Rio Arriba
191,195,FS-1419316,FED,FS-FIRESTAT,FS,USNMCAF,Carson National Forest,0302,Carson National Forest,287,287,F287,ANSELMO,,,,,,2005,2453573.5,203,1710,1.0,Lightning,2453574.5,204.0,1245,0.1,A,36.91833333,-107.35277778,5.0,USFS,NM,39,039,Rio Arriba
192,196,FS-1419317,FED,FS-FIRESTAT,FS,USMTKNF,Kootenai National Forest,0114,Kootenai National Forest,65,030,BEW1,WEST RIVER VIEW,,,,,,2005,2453578.5,208,1001,6.0,Railroad,2453578.5,208.0,1115,0.1,A,48.35194444,-115.3625,13.0,STATE OR PRIVATE,MT,53,053,Lincoln
193,197,FS-1419319,FED,FS-FIRESTAT,FS,USNMCAF,Carson National Forest,0302,Carson National Forest,288,288,F288,LION,,,,,,2005,2453573.5,203,1845,1.0,Lightning,2453573.5,203.0,1931,0.1,A,36.86388889,-107.265,5.0,USFS,NM,39,039,Rio Arriba
194,198,FS-1419322,FED,FS-FIRESTAT,FS,USMTKNF,Kootenai National Forest,0114,Kootenai National Forest,66,31,B19J,RACE TRACK #16,,,,,,2005,2453579.5,209,0930,4.0,Campfire,2453579.5,209.0,1001,0.1,A,48.40833333,-115.55833333,13.0,STATE OR PRIVATE,MT,53,053,Lincoln
195,199,FS-1419324,FED,FS-FIRESTAT,FS,USUTUWF,Uinta/Wasatch-Cache National Forest,0419,Wasatch-Cache-Uinta National Forest,4,252,B0ZP,CEMETERY POINT,,,,,,2005,2453569.5,199,1600,3.0,Smoking,2453569.5,199.0,1630,0.1,A,41.26416667,-111.79583333,5.0,USFS,UT,57,057,Weber
196,200,FS-1419330,FED,FS-FIRESTAT,FS,USAZTNF,Tonto National Forest,0312,Tonto National Forest,83,6,BEY6,BURNT,,,,,,2005,2453554.5,184,2100,9.0,Miscellaneous,2453554.5,184.0,2145,0.1,A,33.62138889,-111.20305556,5.0,USFS,AZ,13,013,Maricopa
197,201,FS-1419331,FED,FS-FIRESTAT,FS,USMNSUF,Superior National Forest,0909,Superior National Forest,14,GUN-1,B0EW,MOON LAKE,,,,,,2005,2453565.5,195,1730,4.0,Campfire,2453566.5,196.0,1117,0.25,A,48.05944444,-90.3375,13.0,STATE OR PRIVATE,MN,31,031,Cook
198,202,FS-1419332,FED,FS-FIRESTAT,FS,USNMCAF,Carson National Forest,0302,Carson National Forest,294,294,F294,DRILL,,,,,,2005,2453573.5,203,1942,1.0,Lightning,2453574.5,204.0,1215,0.1,A,36.93472222,-107.34111111,5.0,USFS,NM,39,039,Rio Arriba
199,203,FS-1419333,FED,FS-FIRESTAT,FS,USAZASF,Apache-Sitgreaves National Forest,0301,Apache-Sitgreaves National Forest,2,1,EBX6,POND,,,,,,2005,2453476.5,106,1500,9.0,Miscellaneous,2453476.5,106.0,1700,2.0,B,33.83972222,-109.115,5.0,USFS,AZ,1,001,Apache
200,204,FS-1419335,FED,FS-FIRESTAT,FS,USAZASF,Apache-Sitgreaves National Forest,0301,Apache-Sitgreaves National Forest,5,03,BSA4,TURKEY,,,,,,2005,2453513.5,143,1401,9.0,Miscellaneous,2453515.5,145.0,1510,5.5,B,34.40527778,-111.0275,5.0,USFS,AZ,17,017,Navajo
201,205,FS-1419337,FED,FS-FIRESTAT,FS,USMNSUF,Superior National Forest,0909,Superior National Forest,2,KAW-01,BNQ4,BEAR CUB,,,,,,2005,2453470.5,100,1200,5.0,Debris Burning,2453470.5,100.0,1222,0.1,A,47.7675,-91.9475,5.0,USFS,MN,137,137,St. Louis
202,206,FS-1419339,FED,FS-FIRESTAT,FS,USAZASF,Apache-Sitgreaves National Forest,0301,Apache-Sitgreaves National Forest,8,002,BEX6,CONCHO BILL,,,,,,2005,2453517.5,147,1130,1.0,Lightning,2453517.5,147.0,1500,0.1,A,33.83666667,-109.36083333,5.0,USFS,AZ,1,001,Apache
203,207,FS-1419340,FED,FS-FIRESTAT,FS,USCASQF,Sequoia National Forest,0513,Sequoia National Forest,3,01,BS21,SOUTH FORK,,,,,,2005,2453518.5,148,1816,4.0,Campfire,2453518.5,148.0,1925,0.3,B,35.63833333,-118.28111111,5.0,USFS,CA,,,
204,208,FS-1419342,FED,FS-FIRESTAT,FS,USMNSUF,Superior National Forest,0909,Superior National Forest,9,KAW-2,BPZ1,HANSON ROAD,,,,,,2005,2453481.5,111,1930,5.0,Debris Burning,2453481.5,111.0,2030,0.2,A,47.94027778,-91.85166667,13.0,STATE OR PRIVATE,MN,137,137,St. Louis
205,209,FS-1419344,FED,FS-FIRESTAT,FS,USCOPSF,Pike and San Isabel National Forest,0212,Pike San Isabel National Forest,20,004,BT83,BEAVER,,,,,,2005,2453534.5,164,1428,9.0,Miscellaneous,2453534.5,164.0,1736,2.5,B,38.89111111,-105.43194444,13.0,STATE OR PRIVATE,CO,,,
206,210,FS-1419347,FED,FS-FIRESTAT,FS,USMNSUF,Superior National Forest,0909,Superior National Forest,11,KAW-3,BE11,HILL,,,,,,2005,2453481.5,111,1630,8.0,Children,2453481.5,111.0,1632,0.1,A,47.89833333,-91.86861111,13.0,STATE OR PRIVATE,MN,137,137,St. Louis
207,211,FS-1419349,FED,FS-FIRESTAT,FS,USCASQF,Sequoia National Forest,0513,Sequoia National Forest,4,02,BE0P,TENT,,,,,,2005,2453519.5,149,1031,4.0,Campfire,2453519.5,149.0,1035,0.25,A,35.64694444,-118.46361111,5.0,USFS,CA,,,
208,212,FS-1419351,FED,FS-FIRESTAT,FS,USMNSUF,Superior National Forest,0909,Superior National Forest,13,KAW-4,BE11,SIBLEY,,,,,,2005,2453493.5,123,1030,7.0,Arson,2453493.5,123.0,1110,0.1,A,47.89805556,-91.87111111,13.0,STATE OR PRIVATE,MN,137,137,St. Louis
209,213,FS-1419352,FED,FS-FIRESTAT,FS,USAZASF,Apache-Sitgreaves National Forest,0301,Apache-Sitgreaves National Forest,19,07,BEX6,CHEVELON,,,,,,2005,2453519.5,149,1530,1.0,Lightning,2453519.5,149.0,2200,7.2,B,34.54166667,-110.9025,5.0,USFS,AZ,5,005,Coconino
210,214,FS-1419354,FED,FS-FIRESTAT,FS,USCASQF,Sequoia National Forest,0513,Sequoia National Forest,5,03,BS21,REDS,,,,,,2005,2453519.5,149,1146,4.0,Campfire,2453519.5,149.0,1204,0.25,A,35.66305556,-118.44361111,5.0,USFS,CA,,,
211,215,FS-1419356,FED,FS-FIRESTAT,FS,USCASQF,Sequoia National Forest,0513,Sequoia National Forest,6,04,BS28,TILLIE,,,,,,2005,2453519.5,149,1431,9.0,Miscellaneous,2453519.5,149.0,1700,1.1,B,35.70222222,-118.45361111,5.0,USFS,CA,,,
212,216,FS-1419357,FED,FS-FIRESTAT,FS,USNVHTF,Humboldt-Toiyabe National Forest,0417,Humboldt-Toiyabe National Forest,40,1332,B2A6,POOREBOY,,,,,,2005,2453579.5,209,1145,1.0,Lightning,2453579.5,209.0,1600,0.25,A,38.65861111,-119.75138889,5.0,USFS,CA,3,003,Alpine
213,217,FS-1419358,FED,FS-FIRESTAT,FS,USMNSUF,Superior National Forest,0909,Superior National Forest,15,KAW-5,BS64,SHIPMAN,,,,,,2005,2453521.5,151,1211,4.0,Campfire,2453521.5,151.0,1530,0.25,A,47.91805556,-91.90194444,5.0,USFS,MN,137,137,St. Louis
214,218,FS-1419359,FED,FS-FIRESTAT,FS,USCASQF,Sequoia National Forest,0513,Sequoia National Forest,8,06,BS94,STINE,,,,,,2005,2453523.5,153,1230,9.0,Miscellaneous,2453523.5,153.0,1245,0.1,A,35.67861111,-118.40944444,5.0,USFS,CA,,,
215,219,FS-1419360,FED,FS-FIRESTAT,FS,USAZASF,Apache-Sitgreaves National Forest,0301,Apache-Sitgreaves National Forest,23,09,BEX6,WILKINS,,,,,,2005,2453520.5,150,1300,1.0,Lightning,2453520.5,150.0,2200,8.7,B,34.53055556,-111.01277778,5.0,USFS,AZ,5,005,Coconino
216,220,FS-1419361,FED,FS-FIRESTAT,FS,USAZASF,Apache-Sitgreaves National Forest,0301,Apache-Sitgreaves National Forest,11,3,BEX6,MCKIBBONS,,,,,,2005,2453517.5,147,1345,1.0,Lightning,2453518.5,148.0,1700,0.1,A,33.70861111,-109.47361111,5.0,USFS,AZ,1,001,Apache
217,221,FS-1419364,FED,FS-FIRESTAT,FS,USCASQF,Sequoia National Forest,0513,Sequoia National Forest,10,07,BE09,MOBILE,,,,,,2005,2453523.5,153,1418,9.0,Miscellaneous,2453523.5,153.0,1425,0.25,A,35.64972222,-118.41638889,5.0,USFS,CA,,,
218,222,FS-1419365,FED,FS-FIRESTAT,FS,USNVHTF,Humboldt-Toiyabe National Forest,0417,Humboldt-Toiyabe National Forest,41,1336,B2BL,BARBER,,,,,,2005,2453579.5,209,1300,1.0,Lightning,2453579.5,209.0,1900,0.1,A,38.67055556,-119.76722222,5.0,USFS,CA,3,003,Alpine
219,223,FS-1419366,FED,FS-FIRESTAT,FS,USCASQF,Sequoia National Forest,0513,Sequoia National Forest,11,08,BTN4,MARINA,,,,,,2005,2453526.5,156,1420,4.0,Campfire,2453526.5,156.0,1550,0.1,A,35.695,-118.46027778,5.0,USFS,CA,,,
220,224,FS-1419367,FED,FS-FIRESTAT,FS,USAZASF,Apache-Sitgreaves National Forest,0301,Apache-Sitgreaves National Forest,12,4,BEX6,FISHBENCH,,,,,,2005,2453517.5,147,1545,1.0,Lightning,2453518.5,148.0,1300,0.1,A,33.71444444,-109.43944444,5.0,USFS,AZ,11,011,Greenlee
221,225,FS-1419368,FED,FS-FIRESTAT,FS,USCASQF,Sequoia National Forest,0513,Sequoia National Forest,12,09,BTP2,BROOKS,,,,,,2005,2453526.5,156,1550,4.0,Campfire,2453526.5,156.0,1641,2.5,B,35.64138889,-118.33666667,14.0,MISSING/NOT SPECIFIED,CA,,,
222,226,FS-1419371,FED,FS-FIRESTAT,FS,USAZASF,Apache-Sitgreaves National Forest,0301,Apache-Sitgreaves National Forest,13,05,BEX6,CREEK,,,,,,2005,2453517.5,147,1300,1.0,Lightning,2453522.5,152.0,1100,0.1,A,33.81555556,-109.32138889,5.0,USFS,AZ,1,001,Apache
223,227,FS-1419372,FED,FS-FIRESTAT,FS,USNVHTF,Humboldt-Toiyabe National Forest,0417,Humboldt-Toiyabe National Forest,7,D2-05-2005,BEZ8,HILL,,,,,,2005,2453546.5,176,1400,1.0,Lightning,2453546.5,176.0,2000,0.1,A,38.35,-119.35,5.0,USFS,CA,51,051,Mono
224,228,FS-1419373,FED,FS-FIRESTAT,FS,USNVHTF,Humboldt-Toiyabe National Forest,0417,Humboldt-Toiyabe National Forest,28,D2 21 2005,B09W,FALLS,,,,,,2005,2453571.5,201,0500,1.0,Lightning,2453571.5,201.0,1808,0.1,A,38.29888889,-119.56527778,5.0,USFS,CA,51,051,Mono
225,229,FS-1419374,FED,FS-FIRESTAT,FS,USCASQF,Sequoia National Forest,0513,Sequoia National Forest,13,10,BTU8,TUTTLE,,,,,,2005,2453527.5,157,1426,9.0,Miscellaneous,2453527.5,157.0,1810,2.1,B,35.68166667,-118.45888889,5.0,USFS,CA,,,
226,230,FS-1419380,FED,FS-FIRESTAT,FS,USNVHTF,Humboldt-Toiyabe National Forest,0417,Humboldt-Toiyabe National Forest,15,D2-07-2005,BZ6H,JANET,,,,,,2005,2453563.5,193,1400,4.0,Campfire,2453563.5,193.0,1810,0.1,A,38.05444444,-119.25194444,13.0,STATE OR PRIVATE,CA,51,051,Mono
227,231,FS-1419384,FED,FS-FIRESTAT,FS,USAZASF,Apache-Sitgreaves National Forest,0301,Apache-Sitgreaves National Forest,16,06,BEX6,DOUG FIR,,,,,,2005,2453518.5,148,1300,1.0,Lightning,2453518.5,148.0,1500,0.1,A,33.66,-109.355,5.0,USFS,AZ,11,011,Greenlee
228,233,FS-1419387,FED,FS-FIRESTAT,FS,USCASQF,Sequoia National Forest,0513,Sequoia National Forest,14,11,BE0P,HOUSE,,,,,,2005,2453534.5,164,1557,9.0,Miscellaneous,2453534.5,164.0,1601,0.1,A,35.45805556,-118.78305556,14.0,MISSING/NOT SPECIFIED,CA,,,
229,234,FS-1419391,FED,FS-FIRESTAT,FS,USNVHTF,Humboldt-Toiyabe National Forest,0417,Humboldt-Toiyabe National Forest,23,D2-16-2005,B1FM,SLINKARD 2,,,FS-0417-023-20050721,SLINKARD 2,,2005,2453572.5,202,1700,1.0,Lightning,2453575.5,205.0,1000,89.0,C,38.57361111,-119.55472222,5.0,USFS,CA,51,051,Mono
230,235,FS-1419392,FED,FS-FIRESTAT,FS,USAZASF,Apache-Sitgreaves National Forest,0301,Apache-Sitgreaves National Forest,18,07,BEX6,GOBBLER,,,,,,2005,2453518.5,148,1300,1.0,Lightning,2453519.5,149.0,0839,0.1,A,33.63361111,-109.47,5.0,USFS,AZ,11,011,Greenlee
231,236,FS-1419393,FED,FS-FIRESTAT,FS,USCASQF,Sequoia National Forest,0513,Sequoia National Forest,24,15,BE0P,PECHACHO,,,,,,2005,2453563.5,193,1445,3.0,Smoking,2453563.5,193.0,1530,0.1,A,35.46444444,-118.75638889,5.0,USFS,CA,,,
232,237,FS-1419396,FED,FS-FIRESTAT,FS,USNVHTF,Humboldt-Toiyabe National Forest,0417,Humboldt-Toiyabe National Forest,8,D2-03-2005,BEZ8,SWAUGER II,,,,,,2005,2453546.5,176,1400,1.0,Lightning,2453546.5,176.0,1530,0.1,A,38.35111111,-119.32722222,5.0,USFS,CA,51,051,Mono
233,238,FS-1419398,FED,FS-FIRESTAT,FS,USNVHTF,Humboldt-Toiyabe National Forest,0417,Humboldt-Toiyabe National Forest,9,D2-02-2005,BEZ8,SWAUGER I,,,,,,2005,2453546.5,176,1545,1.0,Lightning,2453546.5,176.0,1700,0.1,A,38.35027778,-119.33083333,13.0,STATE OR PRIVATE,CA,51,051,Mono
234,239,FS-1419400,FED,FS-FIRESTAT,FS,USNVHTF,Humboldt-Toiyabe National Forest,0417,Humboldt-Toiyabe National Forest,10,D2-01-2005,BV9B,SAWMILL,,,,,,2005,2453546.5,176,1400,1.0,Lightning,2453546.5,176.0,1700,0.1,A,38.34444444,-119.33333333,5.0,USFS,CA,51,051,Mono
235,240,FS-1419402,FED,FS-FIRESTAT,FS,USNVHTF,Humboldt-Toiyabe National Forest,0417,Humboldt-Toiyabe National Forest,11,D2-04-2005,BV8T,RISUE,,,,,,2005,2453546.5,176,1505,1.0,Lightning,2453546.5,176.0,1730,0.1,A,38.65555556,-119.38888889,5.0,USFS,NV,5,005,Douglas
236,241,FS-1419405,FED,FS-FIRESTAT,FS,USNVHTF,Humboldt-Toiyabe National Forest,0417,Humboldt-Toiyabe National Forest,12,1026,BWY0,SPOONER,,,,,,2005,2453541.5,171,2045,9.0,Miscellaneous,2453541.5,171.0,2200,0.1,A,39.11583333,-119.8875,5.0,USFS,NV,510,510,Carson City
237,242,FS-1419407,FED,FS-FIRESTAT,FS,USNVHTF,Humboldt-Toiyabe National Forest,0417,Humboldt-Toiyabe National Forest,13,970,NBVR,BIG CANYON,,,,,,2005,2453544.5,174,2253,9.0,Miscellaneous,2453545.5,175.0,0100,0.25,A,39.22027778,-119.84972222,5.0,USFS,NV,31,031,Washoe
238,243,FS-1419409,FED,FS-FIRESTAT,FS,USNVHTF,Humboldt-Toiyabe National Forest,0417,Humboldt-Toiyabe National Forest,14,978,BV6X,CLEAR CREEK 2,,,,,,2005,2453545.5,175,1701,9.0,Miscellaneous,2453545.5,175.0,2200,0.5,B,39.11055556,-119.85972222,13.0,STATE OR PRIVATE,NV,510,510,Carson City
239,244,FS-1419411,FED,FS-FIRESTAT,FS,USMNCPF,Chippewa National Forest,0903,Chippewa National Forest,2,BD-1,BE1W,CHICKEN SCRATCH,,,,,,2005,2453457.5,87,1300,7.0,Arson,2453457.5,87.0,1302,0.23,A,47.54277778,-94.59638889,13.0,STATE OR PRIVATE,MN,7,007,Beltrami
240,245,FS-1419413,FED,FS-FIRESTAT,FS,USMNCPF,Chippewa National Forest,0903,Chippewa National Forest,3,BD-2,BE1W,BLACK SNOW,,,,,,2005,2453457.5,87,1400,7.0,Arson,2453457.5,87.0,1402,1.06,B,47.54138889,-94.57361111,13.0,STATE OR PRIVATE,MN,7,007,Beltrami
241,246,FS-1419415,FED,FS-FIRESTAT,FS,USMNCPF,Chippewa National Forest,0903,Chippewa National Forest,4,BD-3,BE1W,WOOD RAIL,,,,,,2005,2453457.5,87,1430,6.0,Railroad,2453457.5,87.0,1432,0.37,B,47.59888889,-94.53916667,13.0,STATE OR PRIVATE,MN,7,007,Beltrami
242,247,FS-1419417,FED,FS-FIRESTAT,FS,USMNCPF,Chippewa National Forest,0903,Chippewa National Forest,26,BD-4,BPM6,CEMETERY,,,,,,2005,2453480.5,110,1842,7.0,Arson,2453480.5,110.0,2027,0.24,A,47.53527778,-94.50027778,13.0,STATE OR PRIVATE,MN,7,007,Beltrami
243,248,FS-1419419,FED,FS-FIRESTAT,FS,USMNCPF,Chippewa National Forest,0903,Chippewa National Forest,37,BD-5,BQ24,MEADOW LAKE,,,,,,2005,2453496.5,126,1317,7.0,Arson,2453497.5,127.0,1700,1.2,B,47.5625,-94.64833333,5.0,USFS,MN,7,007,Beltrami
244,249,FS-1419425,FED,FS-FIRESTAT,FS,USNVHTF,Humboldt-Toiyabe National Forest,0417,Humboldt-Toiyabe National Forest,29,D2-22-2005,B2GA,CEDAR,,,,,,2005,2453579.5,209,1830,1.0,Lightning,2453580.5,210.0,1300,0.1,A,38.1975,-118.73027778,5.0,USFS,NV,21,021,Mineral
245,250,FS-1419427,FED,FS-FIRESTAT,FS,USNVHTF,Humboldt-Toiyabe National Forest,0417,Humboldt-Toiyabe National Forest,30,D2-23-2005,BEZ8,CHILAO,,,,,,2005,2453580.5,210,1300,1.0,Lightning,2453580.5,210.0,2100,0.1,A,38.17333333,-118.71388889,5.0,USFS,NV,21,021,Mineral
246,251,FS-1419429,FED,FS-FIRESTAT,FS,USAZASF,Apache-Sitgreaves National Forest,0301,Apache-Sitgreaves National Forest,20,008,BEX6,GREEN,,,,,,2005,2453519.5,149,1300,1.0,Lightning,2453519.5,149.0,1630,0.1,A,33.76555556,-109.175,5.0,USFS,AZ,11,011,Greenlee
247,252,FS-1419430,FED,FS-FIRESTAT,FS,USAZASF,Apache-Sitgreaves National Forest,0301,Apache-Sitgreaves National Forest,24,10,BEX6,WILDCAT,,,,,,2005,2453520.5,150,1127,1.0,Lightning,2453520.5,150.0,2200,6.0,B,34.45555556,-110.75805556,5.0,USFS,AZ,5,005,Coconino
248,253,FS-1419431,FED,FS-FIRESTAT,FS,USNVHTF,Humboldt-Toiyabe National Forest,0417,Humboldt-Toiyabe National Forest,17,D2-10-2005,BZ4F,HORSIE,,,,,,2005,2453562.5,192,1545,5.0,Debris Burning,2453562.5,192.0,1700,0.1,A,38.64444444,-119.44722222,13.0,STATE OR PRIVATE,NV,5,005,Douglas
249,254,FS-1419432,FED,FS-FIRESTAT,FS,USAZASF,Apache-Sitgreaves National Forest,0301,Apache-Sitgreaves National Forest,22,09,BEX6,ROTOR,,,,,,2005,2453519.5,149,1530,1.0,Lightning,2453519.5,149.0,1700,0.1,A,33.81861111,-109.29833333,5.0,USFS,AZ,1,001,Apache
250,255,FS-1419434,FED,FS-FIRESTAT,FS,USNVHTF,Humboldt-Toiyabe National Forest,0417,Humboldt-Toiyabe National Forest,31,D2-26-2005,B1W0,HORSIE 2,,,,,,2005,2453575.5,205,1800,5.0,Debris Burning,2453575.5,205.0,1900,0.1,A,38.64444444,-119.44722222,13.0,STATE OR PRIVATE,NV,5,005,Douglas
251,256,FS-1419435,FED,FS-FIRESTAT,FS,USAZASF,Apache-Sitgreaves National Forest,0301,Apache-Sitgreaves National Forest,25,01,BEX6,WALMART,,,,,,2005,2453520.5,150,1100,1.0,Lightning,2453520.5,150.0,1900,0.5,B,34.20055556,-110.04,5.0,USFS,AZ,17,017,Navajo
252,257,FS-1419437,FED,FS-FIRESTAT,FS,USNVHTF,Humboldt-Toiyabe National Forest,0417,Humboldt-Toiyabe National Forest,32,D2-27-2005,BEZ8,LONE,,,,,,2005,2453571.5,201,1800,1.0,Lightning,2453572.5,202.0,1500,0.25,A,38.65555556,-119.39388889,5.0,USFS,NV,5,005,Douglas
253,258,FS-1419438,FED,FS-FIRESTAT,FS,USAZASF,Apache-Sitgreaves National Forest,0301,Apache-Sitgreaves National Forest,28,11,BEX6,RIVER,,,,,,2005,2453524.5,154,1530,4.0,Campfire,2453524.5,154.0,1900,0.75,B,33.72777778,-109.35472222,5.0,USFS,AZ,11,011,Greenlee
254,259,FS-1419440,FED,FS-FIRESTAT,FS,USAZASF,Apache-Sitgreaves National Forest,0301,Apache-Sitgreaves National Forest,31,012,BEX6,BROOKBANK,,,,,,2005,2453533.5,163,1030,1.0,Lightning,2453533.5,163.0,1500,0.1,A,34.49833333,-110.63444444,5.0,USFS,AZ,17,017,Navajo
255,260,FS-1419442,FED,FS-FIRESTAT,FS,USMNCPF,Chippewa National Forest,0903,Chippewa National Forest,5,DR-1,BMK8,RICE PLANT,,,,,,2005,2453463.5,93,1406,7.0,Arson,2453463.5,93.0,1515,3.1,B,47.3175,-93.93388889,13.0,STATE OR PRIVATE,MN,61,061,Itasca
256,261,FS-1419443,FED,FS-FIRESTAT,FS,USAZASF,Apache-Sitgreaves National Forest,0301,Apache-Sitgreaves National Forest,32,013,BEX6,POWER,,,,,,2005,2453533.5,163,1505,4.0,Campfire,2453533.5,163.0,1615,0.1,A,34.40916667,-111.00888889,5.0,USFS,AZ,5,005,Coconino
257,262,FS-1419444,FED,FS-FIRESTAT,FS,USAZASF,Apache-Sitgreaves National Forest,0301,Apache-Sitgreaves National Forest,33,02,BEX6,PANORAMA,,,,,,2005,2453538.5,168,1030,4.0,Campfire,2453538.5,168.0,1130,0.1,A,34.21111111,-109.92777778,5.0,USFS,AZ,17,017,Navajo
258,263,FS-1419447,FED,FS-FIRESTAT,FS,USAZASF,Apache-Sitgreaves National Forest,0301,Apache-Sitgreaves National Forest,3,1,BEX6,RIGGS FIRE 1,,,,,,2005,2453499.5,129,1000,4.0,Campfire,2453499.5,129.0,1327,0.4,B,34.00111111,-109.25472222,5.0,USFS,AZ,1,001,Apache
259,264,FS-1419449,FED,FS-FIRESTAT,FS,USMNCPF,Chippewa National Forest,0903,Chippewa National Forest,10,DR-2,BMU4,WINNIE DAM #1,,,,,,2005,2453466.5,96,1346,7.0,Arson,2453466.5,96.0,1530,1.03,B,47.35444444,-94.17194444,5.0,USFS,MN,21,021,Cass
260,265,FS-1419450,FED,FS-FIRESTAT,FS,USAZASF,Apache-Sitgreaves National Forest,0301,Apache-Sitgreaves National Forest,34,03,BEX6,BLUEGRASS,,,,,,2005,2453539.5,169,1000,4.0,Campfire,2453539.5,169.0,1002,0.1,A,34.31777778,-110.16916667,5.0,USFS,AZ,17,017,Navajo
261,266,FS-1419453,FED,FS-FIRESTAT,FS,USAZASF,Apache-Sitgreaves National Forest,0301,Apache-Sitgreaves National Forest,36,04,BEX6,BLUE RIDGE,,,,,,2005,2453541.5,171,1436,1.0,Lightning,2453541.5,171.0,1925,0.2,A,34.15083333,-109.91,5.0,USFS,AZ,17,017,Navajo
262,267,FS-1419454,FED,FS-FIRESTAT,FS,USMNCPF,Chippewa National Forest,0903,Chippewa National Forest,11,DR-3,BMU4,WINNIE DAM #2,,,,,,2005,2453466.5,96,1346,7.0,Arson,2453466.5,96.0,1530,0.41,B,47.35444444,-94.17222222,5.0,USFS,MN,21,021,Cass
263,268,FS-1419458,FED,FS-FIRESTAT,FS,USAZASF,Apache-Sitgreaves National Forest,0301,Apache-Sitgreaves National Forest,37,014,BEX6,GRAMA,,,,,,2005,2453542.5,172,1540,1.0,Lightning,2453542.5,172.0,2200,0.5,B,34.55888889,-110.96694444,5.0,USFS,AZ,5,005,Coconino
264,269,FS-1419459,FED,FS-FIRESTAT,FS,USMNCPF,Chippewa National Forest,0903,Chippewa National Forest,21,DR-4,BNL0,PARK FIRE,,,,,,2005,2453473.5,103,1345,7.0,Arson,2453473.5,103.0,1520,0.25,A,47.32638889,-93.93694444,6.0,OTHER FEDERAL,MN,61,061,Itasca
265,270,FS-1419460,FED,FS-FIRESTAT,FS,USAZASF,Apache-Sitgreaves National Forest,0301,Apache-Sitgreaves National Forest,45,015,BEX6,KV,,,,,,2005,2453545.5,175,1000,1.0,Lightning,2453546.5,176.0,1700,3.8,B,34.45,-110.75,5.0,USFS,AZ,17,017,Navajo
266,271,FS-1419462,FED,FS-FIRESTAT,FS,USMNCPF,Chippewa National Forest,0903,Chippewa National Forest,22,DR-5,BNM1,GAS TAX,,,,,,2005,2453473.5,103,1700,5.0,Debris Burning,2453473.5,103.0,1730,1.5,B,47.25305556,-93.91027778,13.0,STATE OR PRIVATE,MN,21,021,Cass
267,272,FS-1419464,FED,FS-FIRESTAT,FS,USAZASF,Apache-Sitgreaves National Forest,0301,Apache-Sitgreaves National Forest,7,2,BEX6,ASPEN,,,,,,2005,2453516.5,146,1500,1.0,Lightning,2453516.5,146.0,1900,0.8,B,34.10416667,-109.49527778,5.0,USFS,AZ,1,001,Apache
268,274,FS-1419468,FED,FS-FIRESTAT,FS,USMNCPF,Chippewa National Forest,0903,Chippewa National Forest,24,DR-6,BN50,BARNEY LAKE,,,,,,2005,2453477.5,107,1430,7.0,Arson,2453477.5,107.0,2130,12.0,C,47.48166667,-93.67138889,5.0,USFS,MN,61,061,Itasca
269,275,FS-1419469,FED,FS-FIRESTAT,FS,USAZASF,Apache-Sitgreaves National Forest,0301,Apache-Sitgreaves National Forest,50,06,BEX6,SPRINGER,,,,,,2005,2453546.5,176,1530,1.0,Lightning,2453546.5,176.0,1800,0.2,A,34.16166667,-109.93916667,5.0,USFS,AZ,17,017,Navajo
270,276,FS-1419472,FED,FS-FIRESTAT,FS,USAZASF,Apache-Sitgreaves National Forest,0301,Apache-Sitgreaves National Forest,17,3,BEX6,HOME,,,,,,2005,2453518.5,148,1400,1.0,Lightning,2453519.5,149.0,0800,0.1,A,33.83388889,-109.385,5.0,USFS,AZ,1,001,Apache
271,277,FS-1419474,FED,FS-FIRESTAT,FS,USAZASF,Apache-Sitgreaves National Forest,0301,Apache-Sitgreaves National Forest,51,007,BEX6,CABIN,,,,,,2005,2453546.5,176,1500,1.0,Lightning,2453546.5,176.0,1930,0.25,A,34.16416667,-109.92861111,5.0,USFS,AZ,17,017,Navajo
272,278,FS-1419476,FED,FS-FIRESTAT,FS,USAZASF,Apache-Sitgreaves National Forest,0301,Apache-Sitgreaves National Forest,55,017,BEX6,LAKE,,,,,,2005,2453548.5,178,1435,4.0,Campfire,2453548.5,178.0,1830,0.8,B,34.33583333,-110.835,5.0,USFS,AZ,5,005,Coconino
273,279,FS-1419477,FED,FS-FIRESTAT,FS,USMNCPF,Chippewa National Forest,0903,Chippewa National Forest,28,DR-8,BB0C,INGER FIRE,,,,,,2005,2453481.5,111,1645,9.0,Miscellaneous,2453481.5,111.0,1900,0.1,A,47.54972222,-93.97694444,13.0,STATE OR PRIVATE,MN,61,061,Itasca
274,280,FS-1419478,FED,FS-FIRESTAT,FS,USNVHTF,Humboldt-Toiyabe National Forest,0417,Humboldt-Toiyabe National Forest,34,1181,B0FD,192,,,,,,2005,2453566.5,196,1020,9.0,Miscellaneous,2453566.5,196.0,1500,0.5,B,39.61472222,-119.99722222,5.0,USFS,CA,91,091,Sierra
275,281,FS-1419481,FED,FS-FIRESTAT,FS,USMNCPF,Chippewa National Forest,0903,Chippewa National Forest,29,DR-9,BP6R,INGER FIRE #2,,,,,,2005,2453485.5,115,0050,7.0,Arson,2453485.5,115.0,0145,0.1,A,47.55472222,-93.98472222,6.0,OTHER FEDERAL,MN,61,061,Itasca
276,282,FS-1419484,FED,FS-FIRESTAT,FS,USAZASF,Apache-Sitgreaves National Forest,0301,Apache-Sitgreaves National Forest,56,008,BWW0,FOOL HOLLOW,,,,,,2005,2453548.5,178,1801,7.0,Arson,2453549.5,179.0,1030,2.0,B,34.21166667,-110.08472222,5.0,USFS,AZ,17,017,Navajo
277,283,FS-1419485,FED,FS-FIRESTAT,FS,USAZASF,Apache-Sitgreaves National Forest,0301,Apache-Sitgreaves National Forest,27,4,BEX6,117 C,,,,,,2005,2453520.5,150,1500,4.0,Campfire,2453520.5,150.0,1630,0.1,A,34.08694444,-109.53333333,5.0,USFS,AZ,1,001,Apache
278,284,FS-1419486,FED,FS-FIRESTAT,FS,USAZASF,Apache-Sitgreaves National Forest,0301,Apache-Sitgreaves National Forest,43,5,BEX6,HAYGROUND,,,,,,2005,2453543.5,173,1445,1.0,Lightning,2453543.5,173.0,1940,0.1,A,33.82888889,-109.46333333,5.0,USFS,AZ,1,001,Apache
279,285,FS-1419487,FED,FS-FIRESTAT,FS,USAZASF,Apache-Sitgreaves National Forest,0301,Apache-Sitgreaves National Forest,58,018,BEX6,CATTLE GUARD,,,,,,2005,2453552.5,182,1630,4.0,Campfire,2453552.5,182.0,1730,0.3,B,34.40944444,-111.00833333,5.0,USFS,AZ,5,005,Coconino
280,286,FS-1419488,FED,FS-FIRESTAT,FS,USAZASF,Apache-Sitgreaves National Forest,0301,Apache-Sitgreaves National Forest,60,019,BEX6,BEAR,,,,,,2005,2453553.5,183,1230,3.0,Smoking,2453553.5,183.0,1500,0.1,A,34.41444444,-111.00972222,5.0,USFS,AZ,5,005,Coconino
281,287,FS-1419491,FED,FS-FIRESTAT,FS,USAZASF,Apache-Sitgreaves National Forest,0301,Apache-Sitgreaves National Forest,62,021,BEX6,CHAOS,,,,,,2005,2453553.5,183,1330,4.0,Campfire,2453553.5,183.0,1700,0.1,A,34.40138889,-110.99611111,5.0,USFS,AZ,5,005,Coconino
282,288,FS-1419492,FED,FS-FIRESTAT,FS,USAZASF,Apache-Sitgreaves National Forest,0301,Apache-Sitgreaves National Forest,63,009,BEX6,RIGHT HAND,,,,,,2005,2453553.5,183,1617,9.0,Miscellaneous,2453553.5,183.0,1900,0.1,A,34.20805556,-110.07555556,5.0,USFS,AZ,17,017,Navajo
283,289,FS-1419493,FED,FS-FIRESTAT,FS,USTXTXF,National Forests And Grasslands In Texas,0813,National Forests in Texas,1,1,BE1S,LAKE FANNIN,,,,,,2005,2453394.5,24,1000,7.0,Arson,2453394.5,24.0,1500,3.0,B,33.78611111,-96.15,5.0,USFS,TX,,,
284,290,FS-1419494,FED,FS-FIRESTAT,FS,USTXTXF,National Forests And Grasslands In Texas,0813,National Forests in Texas,2,1,BE1S,CEMETERY,,,,,,2005,2453395.5,25,1830,5.0,Debris Burning,2453395.5,25.0,2222,55.0,C,31.3125,-94.27083333,13.0,STATE OR PRIVATE,TX,,,
285,291,FS-1419497,FED,FS-FIRESTAT,FS,USTXTXF,National Forests And Grasslands In Texas,0813,National Forests in Texas,5,2,BE1S,BLACK CREEK,,,,,,2005,2453441.5,71,0215,4.0,Campfire,2453442.5,72.0,1800,2.0,B,33.34583333,-97.59583333,5.0,USFS,TX,,,
286,292,FS-1419498,FED,FS-FIRESTAT,FS,USTXTXF,National Forests And Grasslands In Texas,0813,National Forests in Texas,9,2,BE1S,WELL DAM,,,,,,2005,2453463.5,93,1730,3.0,Smoking,2453463.5,93.0,1840,0.3,B,31.38666667,-95.15055556,5.0,USFS,TX,,,
287,293,FS-1419500,FED,FS-FIRESTAT,FS,USTXTXF,National Forests And Grasslands In Texas,0813,National Forests in Texas,10,3,BE1S,ENON CEMETARY,,,,,,2005,2453467.5,97,1800,1.0,Lightning,2453468.5,98.0,1550,55.0,C,31.35416667,-95.08527778,5.0,USFS,TX,,,
288,294,FS-1419503,FED,FS-FIRESTAT,FS,USIDCTF,Caribou-Targhee National Forest,0415,Caribou-Targhee National Forest,14,56-03,BEZ7,POLE CANYON,,,,,,2005,2453578.5,208,1300,1.0,Lightning,2453578.5,208.0,2000,0.1,A,43.56,-111.12916667,5.0,USFS,ID,81,081,Teton
289,295,FS-1419504,FED,FS-FIRESTAT,FS,USTXTXF,National Forests And Grasslands In Texas,0813,National Forests in Texas,11,3,BE1S,BUCK CREEK #1,,,,,,2005,2453478.5,108,0700,7.0,Arson,2453478.5,108.0,0905,2.0,B,31.15444444,-93.62388889,5.0,USFS,TX,,,
290,296,FS-1419505,FED,FS-FIRESTAT,FS,USTXTXF,National Forests And Grasslands In Texas,0813,National Forests in Texas,12,4,BE1S,BUCK CREEK #2,,,,,,2005,2453478.5,108,0700,7.0,Arson,2453478.5,108.0,0925,1.0,B,31.15888889,-93.62083333,5.0,USFS,TX,,,
291,297,FS-1419507,FED,FS-FIRESTAT,FS,USAZASF,Apache-Sitgreaves National Forest,0301,Apache-Sitgreaves National Forest,44,6,BEX6,SU FIRE,,,,,,2005,2453544.5,174,1400,1.0,Lightning,2453544.5,174.0,1830,0.1,A,33.91944444,-109.41277778,5.0,USFS,AZ,1,001,Apache
292,298,FS-1419508,FED,FS-FIRESTAT,FS,USTXTXF,National Forests And Grasslands In Texas,0813,National Forests in Texas,13,5,BE1S,BUCK CREEK #3,,,,,,2005,2453478.5,108,0700,7.0,Arson,2453478.5,108.0,0939,0.8,B,31.15972222,-93.61888889,5.0,USFS,TX,,,
293,299,FS-1419509,FED,FS-FIRESTAT,FS,USTXTXF,National Forests And Grasslands In Texas,0813,National Forests in Texas,14,6,BE1S,BUCK CREEK #4,,,,,,2005,2453478.5,108,0700,7.0,Arson,2453478.5,108.0,0949,5.0,B,31.14583333,-93.61527778,5.0,USFS,TX,,,
294,300,FS-1419510,FED,FS-FIRESTAT,FS,USTXTXF,National Forests And Grasslands In Texas,0813,National Forests in Texas,15,7,BE1S,BUCK CREEK #5,,,,,,2005,2453478.5,108,0700,7.0,Arson,2453478.5,108.0,1000,0.1,A,31.16305556,-93.61694444,5.0,USFS,TX,,,
295,301,FS-1419511,FED,FS-FIRESTAT,FS,USAZASF,Apache-Sitgreaves National Forest,0301,Apache-Sitgreaves National Forest,47,7,BEX6,BIG FIRE,,,,,,2005,2453544.5,174,1600,1.0,Lightning,2453544.5,174.0,1810,0.1,A,33.86305556,-109.41805556,5.0,USFS,AZ,1,001,Apache
296,302,FS-1419512,FED,FS-FIRESTAT,FS,USTXTXF,National Forests And Grasslands In Texas,0813,National Forests in Texas,16,8,BE1S,BUCK CREEK #6,,,,,,2005,2453478.5,108,0700,7.0,Arson,2453478.5,108.0,1046,0.5,B,31.16416667,-93.61527778,5.0,USFS,TX,,,
297,303,FS-1419513,FED,FS-FIRESTAT,FS,USAZASF,Apache-Sitgreaves National Forest,0301,Apache-Sitgreaves National Forest,64,022,BEX6,BEAVER,,,,,,2005,2453554.5,184,1100,9.0,Miscellaneous,2453554.5,184.0,1230,0.1,A,34.38638889,-111.01833333,5.0,USFS,AZ,5,005,Coconino
298,304,FS-1419514,FED,FS-FIRESTAT,FS,USAZASF,Apache-Sitgreaves National Forest,0301,Apache-Sitgreaves National Forest,48,8,BEX6,KNOLL FIRE,,,,,,2005,2453545.5,175,1640,1.0,Lightning,2453545.5,175.0,1841,0.1,A,33.92,-109.4125,5.0,USFS,AZ,1,001,Apache
299,305,FS-1419515,FED,FS-FIRESTAT,FS,USTXTXF,National Forests And Grasslands In Texas,0813,National Forests in Texas,19,4,BE1S,RJ HERO,,,,,,2005,2453510.5,140,1330,7.0,Arson,2453510.5,140.0,1415,16.0,C,31.43666667,-95.15055556,5.0,USFS,TX,,,
300,306,FS-1419516,FED,FS-FIRESTAT,FS,USAZASF,Apache-Sitgreaves National Forest,0301,Apache-Sitgreaves National Forest,52,52,BEX6,SIPE,,,,,,2005,2453546.5,176,1930,1.0,Lightning,2453547.5,177.0,1059,0.1,A,34.05555556,-109.23888889,5.0,USFS,AZ,1,001,Apache
301,307,FS-1419517,FED,FS-FIRESTAT,FS,USTXTXF,National Forests And Grasslands In Texas,0813,National Forests in Texas,22,3,BE1S,CHICKEN LAKE,,,,,,2005,2453548.5,178,1516,2.0,Equipment Use,2453558.5,188.0,1630,90.0,C,33.33055556,-97.7625,5.0,USFS,TX,,,
302,308,FS-1419520,FED,FS-FIRESTAT,FS,USTXTXF,National Forests And Grasslands In Texas,0813,National Forests in Texas,26,4,BE1S,FOUR,,,,,,2005,2453554.5,184,2015,7.0,Arson,2453554.5,184.0,2100,3.0,B,33.355,-97.7675,5.0,USFS,TX,,,
303,309,FS-1419521,FED,FS-FIRESTAT,FS,USAZASF,Apache-Sitgreaves National Forest,0301,Apache-Sitgreaves National Forest,54,10,BEX6,GREER,,,,,,2005,2453547.5,177,1310,1.0,Lightning,2453547.5,177.0,2000,1.5,B,34.04527778,-109.47583333,5.0,USFS,AZ,1,001,Apache
304,310,FS-1419522,FED,FS-FIRESTAT,FS,USTXTXF,National Forests And Grasslands In Texas,0813,National Forests in Texas,27,5,BE1S,UNIT 38,,,,,,2005,2453555.5,185,1130,7.0,Arson,2453558.5,188.0,1800,40.0,C,33.34444444,-97.65222222,5.0,USFS,TX,,,
305,311,FS-1419525,FED,FS-FIRESTAT,FS,USTXTXF,National Forests And Grasslands In Texas,0813,National Forests in Texas,28,6,BE1S,CLEAR LAKE,,,,,,2005,2453555.5,185,2130,7.0,Arson,2453556.5,186.0,1500,15.0,C,33.32361111,-97.64583333,5.0,USFS,TX,,,
306,312,FS-1419526,FED,FS-FIRESTAT,FS,USAZASF,Apache-Sitgreaves National Forest,0301,Apache-Sitgreaves National Forest,69,023,BEX6,PORT,,,,,,2005,2453555.5,185,1230,4.0,Campfire,2453555.5,185.0,1400,0.1,A,34.40694444,-111.00777778,5.0,USFS,AZ,5,005,Coconino
307,313,FS-1419527,FED,FS-FIRESTAT,FS,USIDCTF,Caribou-Targhee National Forest,0415,Caribou-Targhee National Forest,1,56-01,BS2D,SOUTH LEIGH LOOP,,,,,,2005,2453519.5,149,0800,4.0,Campfire,2453519.5,149.0,0930,0.1,A,43.82,-110.96527778,5.0,USFS,WY,39,039,Teton
308,314,FS-1419531,FED,FS-FIRESTAT,FS,USAZASF,Apache-Sitgreaves National Forest,0301,Apache-Sitgreaves National Forest,72,024,BEX6,RIDGE,,,,,,2005,2453556.5,186,0700,4.0,Campfire,2453556.5,186.0,1100,0.1,A,34.40027778,-111.01,5.0,USFS,AZ,5,005,Coconino
309,315,FS-1419532,FED,FS-FIRESTAT,FS,USAZASF,Apache-Sitgreaves National Forest,0301,Apache-Sitgreaves National Forest,57,11,BEX6,RESERVATION CREEK,,,,,,2005,2453547.5,177,1500,1.0,Lightning,2453547.5,177.0,1930,0.2,A,33.80138889,-109.49277778,5.0,USFS,AZ,1,001,Apache
310,316,FS-1419536,FED,FS-FIRESTAT,FS,USAZASF,Apache-Sitgreaves National Forest,0301,Apache-Sitgreaves National Forest,111,028,BEX6,DUTCH,,,,,,2005,2453566.5,196,1445,1.0,Lightning,2453566.5,196.0,1700,0.3,B,34.47722222,-110.96222222,5.0,USFS,AZ,5,005,Coconino
311,318,FS-1419538,FED,FS-FIRESTAT,FS,USAZASF,Apache-Sitgreaves National Forest,0301,Apache-Sitgreaves National Forest,113,029,BEX6,NUMBER ONE,,,,,,2005,2453567.5,197,1430,1.0,Lightning,2453568.5,198.0,1530,0.1,A,34.52305556,-111.0275,5.0,USFS,AZ,5,005,Coconino
312,319,FS-1419541,FED,FS-FIRESTAT,FS,USAZASF,Apache-Sitgreaves National Forest,0301,Apache-Sitgreaves National Forest,114,030,BEX6,NUMBER TWO,,,,,,2005,2453567.5,197,1430,1.0,Lightning,2453569.5,199.0,1100,1.0,B,34.53833333,-111.02083333,5.0,USFS,AZ,5,005,Coconino
313,320,FS-1419542,FED,FS-FIRESTAT,FS,USNMSNF,Santa Fe National Forest,0310,Santa Fe National Forest,65,019,BEY5,PECOS,,,,,,2005,2453554.5,184,1630,1.0,Lightning,2453555.5,185.0,1800,0.1,A,35.6875,-105.74388889,5.0,USFS,NM,47,047,San Miguel
314,321,FS-1419543,FED,FS-FIRESTAT,FS,USNMSNF,Santa Fe National Forest,0310,Santa Fe National Forest,23,2,BEY5,SAPELLO,,,,,,2005,2453521.5,151,1230,1.0,Lightning,2453522.5,152.0,1510,1.0,B,35.785,-105.41194444,5.0,USFS,NM,47,047,San Miguel
315,322,FS-1419548,FED,FS-FIRESTAT,FS,USAZASF,Apache-Sitgreaves National Forest,0301,Apache-Sitgreaves National Forest,121,035,BEX6,WIGGINS,,,,,,2005,2453567.5,197,1430,1.0,Lightning,2453568.5,198.0,1400,0.3,B,34.51694444,-111.00333333,5.0,USFS,AZ,5,005,Coconino
316,323,FS-1419549,FED,FS-FIRESTAT,FS,USNMSNF,Santa Fe National Forest,0310,Santa Fe National Forest,47,13,BEY5,GLORIETA,,,,,,2005,2453542.5,172,1000,1.0,Lightning,2453543.5,173.0,1317,0.1,A,35.61777778,-105.63138889,5.0,USFS,NM,47,047,San Miguel
317,324,FS-1419550,FED,FS-FIRESTAT,FS,USAZASF,Apache-Sitgreaves National Forest,0301,Apache-Sitgreaves National Forest,141,015,BEX6,CHIPMUNK,,,,,,2005,2453570.5,200,0910,1.0,Lightning,2453570.5,200.0,2000,0.3,B,34.14972222,-109.87583333,5.0,USFS,AZ,5,005,Coconino
318,325,FS-1419551,FED,FS-FIRESTAT,FS,USAZASF,Apache-Sitgreaves National Forest,0301,Apache-Sitgreaves National Forest,142,016,BEX6,MORGAN,,,,,,2005,2453570.5,200,0930,1.0,Lightning,2453570.5,200.0,1549,0.1,A,34.20138889,-109.88416667,5.0,USFS,AZ,17,017,Navajo
319,326,FS-1419552,FED,FS-FIRESTAT,FS,USAZASF,Apache-Sitgreaves National Forest,0301,Apache-Sitgreaves National Forest,164,046,BEX6,TWO,,,,,,2005,2453573.5,203,1433,1.0,Lightning,2453573.5,203.0,1700,0.1,A,34.45777778,-110.46583333,5.0,USFS,AZ,17,017,Navajo
320,327,FS-1419553,FED,FS-FIRESTAT,FS,USIDCTF,Caribou-Targhee National Forest,0415,Caribou-Targhee National Forest,11,57-05,B06N,COPPER,,,,,,2005,2453571.5,201,0900,5.0,Debris Burning,2453571.5,201.0,1200,0.1,A,42.84416667,-112.52277778,5.0,USFS,ID,5,005,Bannock
321,328,FS-1419559,FED,FS-FIRESTAT,FS,USIDCTF,Caribou-Targhee National Forest,0415,Caribou-Targhee National Forest,2,56-02,BEZ7,SPRING CANYON,,,,,,2005,2453542.5,172,1700,1.0,Lightning,2453543.5,173.0,1430,0.1,A,43.21083333,-111.03444444,5.0,USFS,ID,19,019,Bonneville
322,329,FS-1419561,FED,FS-FIRESTAT,FS,USAZASF,Apache-Sitgreaves National Forest,0301,Apache-Sitgreaves National Forest,67,13,BX4N,MEADOW,,,,,,2005,2453555.5,185,0530,4.0,Campfire,2453555.5,185.0,1800,1.5,B,34.06166667,-109.34777778,5.0,USFS,AZ,1,001,Apache
323,330,FS-1419562,FED,FS-FIRESTAT,FS,USNVHTF,Humboldt-Toiyabe National Forest,0417,Humboldt-Toiyabe National Forest,44,1348,BEZ8,WEST,,,,,,2005,2453579.5,209,2000,1.0,Lightning,2453581.5,211.0,0300,0.25,A,38.76583333,-119.88777778,5.0,USFS,CA,3,003,Alpine
324,331,FS-1419572,FED,FS-FIRESTAT,FS,USAZCOF,Coconino National Forest,0304,Coconino National Forest,5,001,BEX9,FIRST,,,,,,2005,2453475.5,105,1011,4.0,Campfire,2453475.5,105.0,1530,0.25,A,35.31111111,-111.41361111,5.0,USFS,AZ,5,005,Coconino
325,332,FS-1419573,FED,FS-FIRESTAT,FS,USCOPSF,Pike and San Isabel National Forest,0212,Pike San Isabel National Forest,39,009,BEX1,LAZY CHAIR,,,,,,2005,2453545.5,175,1908,1.0,Lightning,2453546.5,176.0,1831,0.25,A,39.3975,-105.24611111,5.0,USFS,CO,,,
326,333,FS-1419577,FED,FS-FIRESTAT,FS,USAZCNF,Coronado National Forest,0305,Coronado National Forest,78,008,B0XJ,CEDAR,,,,,,2005,2453569.5,199,1000,1.0,Lightning,2453570.5,200.0,0355,3.0,B,32.75194444,-110.08722222,5.0,USFS,AZ,9,009,Graham
327,334,FS-1419587,FED,FS-FIRESTAT,FS,USAZCOF,Coconino National Forest,0304,Coconino National Forest,6,002,BEX9,PARTY,,,,,,2005,2453482.5,112,1144,4.0,Campfire,2453482.5,112.0,1245,0.25,A,35.325,-111.525,5.0,USFS,AZ,5,005,Coconino
328,335,FS-1419588,FED,FS-FIRESTAT,FS,USAZCNF,Coronado National Forest,0305,Coronado National Forest,79,009,B0ZS,STOWE,,,,,,2005,2453569.5,199,1800,1.0,Lightning,2453571.5,201.0,1700,18.0,C,32.77305556,-109.94222222,5.0,USFS,AZ,9,009,Graham
329,336,FS-1419590,FED,FS-FIRESTAT,FS,USAZASF,Apache-Sitgreaves National Forest,0301,Apache-Sitgreaves National Forest,152,018,BEX6,LINDEN DRAW,,,,,,2005,2453572.5,202,0800,1.0,Lightning,2453574.5,204.0,1630,2.0,B,34.32833333,-110.08333333,5.0,USFS,AZ,17,017,Navajo
330,337,FS-1419593,FED,FS-FIRESTAT,FS,USAZCOF,Coconino National Forest,0304,Coconino National Forest,7,003,BEX9,EIGHTY-NINE,,,,,,2005,2453487.5,117,1637,9.0,Miscellaneous,2453487.5,117.0,1745,2.0,B,35.45638889,-111.59666667,5.0,USFS,AZ,5,005,Coconino
331,338,FS-1419599,FED,FS-FIRESTAT,FS,USAZCOF,Coconino National Forest,0304,Coconino National Forest,13,004,BEX9,BONITO,,,,,,2005,2453510.5,140,1229,3.0,Smoking,2453510.5,140.0,1315,0.1,A,35.37027778,-111.54333333,5.0,USFS,AZ,5,005,Coconino
332,339,FS-1419600,FED,FS-FIRESTAT,FS,USAZCNF,Coronado National Forest,0305,Coronado National Forest,77,07,B0XG,TWO TROUGHS,,,,,,2005,2453569.5,199,1000,1.0,Lightning,2453570.5,200.0,1200,11.0,C,32.7925,-110.08111111,5.0,USFS,AZ,9,009,Graham
333,340,FS-1419603,FED,FS-FIRESTAT,FS,USAZASF,Apache-Sitgreaves National Forest,0301,Apache-Sitgreaves National Forest,139,013,BEX6,SKY HIGH,,,,,,2005,2453570.5,200,0830,1.0,Lightning,2453570.5,200.0,1330,0.3,B,34.15166667,-109.8675,5.0,USFS,AZ,17,017,Navajo
334,341,FS-1419605,FED,FS-FIRESTAT,FS,USAZCNF,Coronado National Forest,0305,Coronado National Forest,73,05,BEY0,WEST PEAK,,,,,,2005,2453569.5,199,0800,1.0,Lightning,2453569.5,199.0,1130,0.1,A,32.73972222,-110.04027778,5.0,USFS,AZ,9,009,Graham
335,342,FS-1419606,FED,FS-FIRESTAT,FS,USAZCOF,Coconino National Forest,0304,Coconino National Forest,16,005,BEX9,SUNSET,,,,,,2005,2453512.5,142,1151,7.0,Arson,2453512.5,142.0,1630,1.5,B,35.31972222,-111.52527778,5.0,USFS,AZ,5,005,Coconino
336,343,FS-1419609,FED,FS-FIRESTAT,FS,USNMGNF,Gila National Forest,0306,Gila National Forest,10,002,BEY1,GLEN,,,,,,2005,2453517.5,147,1530,1.0,Lightning,2453518.5,148.0,0800,0.1,A,33.31722222,-108.89527778,5.0,USFS,NM,3,003,Catron
337,344,FS-1419610,FED,FS-FIRESTAT,FS,USAZCNF,Coronado National Forest,0305,Coronado National Forest,71,04,B0UL,MEXICAN,,,,,,2005,2453568.5,198,1600,1.0,Lightning,2453568.5,198.0,1930,3.0,B,32.80083333,-110.00833333,5.0,USFS,AZ,9,009,Graham
338,345,FS-1419611,FED,FS-FIRESTAT,FS,USAZCNF,Coronado National Forest,0305,Coronado National Forest,82,10,BEY0,GRANT,,,,,,2005,2453576.5,206,0900,1.0,Lightning,2453576.5,206.0,2030,0.1,A,32.6525,-109.86916667,5.0,USFS,AZ,9,009,Graham
339,346,FS-1419613,FED,FS-FIRESTAT,FS,USNVHTF,Humboldt-Toiyabe National Forest,0417,Humboldt-Toiyabe National Forest,36,1223,B0ZQ,GENOA,,,,,,2005,2453569.5,199,1700,1.0,Lightning,2453570.5,200.0,0730,8.0,B,38.98916667,-119.84638889,13.0,STATE OR PRIVATE,NV,5,005,Douglas
340,347,FS-1419615,FED,FS-FIRESTAT,FS,USCOPSF,Pike and San Isabel National Forest,0212,Pike San Isabel National Forest,48,012,BX26,BUNO GULCH,,,,,,2005,2453554.5,184,1510,4.0,Campfire,2453554.5,184.0,1600,0.1,A,39.3525,-105.15555556,5.0,USFS,CO,,,
341,348,FS-1419626,FED,FS-FIRESTAT,FS,USORMHF,Mt. Hood National Forest,0606,Mt. Hood National Forest,1,501,BE01,HELION,,,,,,2005,2453554.5,184,1315,4.0,Campfire,2453554.5,184.0,1645,0.1,A,45.13472222,-122.17972222,5.0,USFS,OR,5,005,Clackamas
342,349,FS-1419629,FED,FS-FIRESTAT,FS,USNMGNF,Gila National Forest,0306,Gila National Forest,26,04,BS73,BIGHORN,,,,,,2005,2453521.5,151,1700,2.0,Equipment Use,2453521.5,151.0,1900,0.8,B,33.33111111,-108.37805556,5.0,USFS,NM,3,003,Catron
343,350,FS-1419631,FED,FS-FIRESTAT,FS,USNMGNF,Gila National Forest,0306,Gila National Forest,27,05,BEY1,OWL,,,,,,2005,2453522.5,152,0845,1.0,Lightning,2453523.5,153.0,0800,0.3,B,33.68444444,-108.98166667,5.0,USFS,NM,3,003,Catron
344,351,FS-1419634,FED,FS-FIRESTAT,FS,USNMGNF,Gila National Forest,0306,Gila National Forest,28,06,BEY1,NOLAN,,,,,,2005,2453522.5,152,1500,1.0,Lightning,2453524.5,154.0,1430,2.0,B,33.69277778,-109.0,5.0,USFS,NM,3,003,Catron
345,352,FS-1419635,FED,FS-FIRESTAT,FS,USAROUF,Ouachita National Forest,0809,Ouachita National Forest,3,003,BK28,ROAD#86,,,,,,2005,2453434.5,64,1500,7.0,Arson,2453434.5,64.0,1730,2.0,B,34.89055556,-92.89138889,5.0,USFS,AR,,,
346,353,FS-1419636,FED,FS-FIRESTAT,FS,USNMGNF,Gila National Forest,0306,Gila National Forest,30,007,BTA1,PARK,,,,,,2005,2453523.5,153,0607,4.0,Campfire,2453523.5,153.0,1130,0.5,B,33.55972222,-108.95916667,5.0,USFS,NM,3,003,Catron
347,354,FS-1419637,FED,FS-FIRESTAT,FS,USNMGNF,Gila National Forest,0306,Gila National Forest,32,08,B2TZ,LANDFILL,,,,,,2005,2453530.5,160,2120,7.0,Arson,2453531.5,161.0,1630,2.5,B,33.28694444,-108.86861111,5.0,USFS,NM,3,003,Catron
348,355,FS-1419638,FED,FS-FIRESTAT,FS,USORFWF,Fremont-Winema National Forest,0602,Fremont-Winema National Forest,12,105,BE0X,DICE  141,,,,,,2005,2453573.5,203,0917,1.0,Lightning,2453573.5,203.0,1500,0.5,B,42.58694444,-121.18638889,5.0,USFS,OR,37,037,Lake
349,356,FS-1419639,FED,FS-FIRESTAT,FS,USNMGNF,Gila National Forest,0306,Gila National Forest,51,09,BV70,HARDEN,,,,,,2005,2453546.5,176,1230,4.0,Campfire,2453546.5,176.0,1630,0.3,B,33.11861111,-109.0,5.0,USFS,NM,17,017,Grant
350,357,FS-1419641,FED,FS-FIRESTAT,FS,USNMGNF,Gila National Forest,0306,Gila National Forest,72,010,BEY1,BEAD,,,,,,2005,2453563.5,193,1630,1.0,Lightning,2453564.5,194.0,1730,0.1,A,33.36305556,-108.66388889,5.0,USFS,NM,3,003,Catron
351,358,FS-1419642,FED,FS-FIRESTAT,FS,USCAANF,Angeles National Forest,0501,Angeles National Forest,61,02,BE8B,PADUA,,,,,,2005,2453553.5,183,0912,9.0,Miscellaneous,2453553.5,183.0,0940,0.1,A,34.16222222,-117.68166667,14.0,MISSING/NOT SPECIFIED,CA,,,
352,359,FS-1419644,FED,FS-FIRESTAT,FS,USNENBF,Nebraska National Forest,0207,Nebraska National Forest,9,4,BEW8,COTTONWOOD 2,,,,,,2005,2453580.5,210,1530,1.0,Lightning,2453582.5,212.0,1525,14.5,C,43.66194444,-102.83444444,5.0,USFS,SD,33,033,Custer
353,360,FS-1419645,FED,FS-FIRESTAT,FS,USNMGNF,Gila National Forest,0306,Gila National Forest,75,11,BEY1,CREEK,,,,,,2005,2453564.5,194,1145,1.0,Lightning,2453564.5,194.0,1900,0.3,B,33.36166667,-108.615,5.0,USFS,NM,3,003,Catron
354,361,FS-1419646,FED,FS-FIRESTAT,FS,USNMGNF,Gila National Forest,0306,Gila National Forest,77,012,BEY1,HUMMINGBIRD,,,,,,2005,2453564.5,194,1505,1.0,Lightning,2453567.5,197.0,1100,0.5,B,33.335,-108.67611111,5.0,USFS,NM,3,003,Catron
355,362,FS-1419647,FED,FS-FIRESTAT,FS,USIDCTF,Caribou-Targhee National Forest,0415,Caribou-Targhee National Forest,16,57-06,B2R8,NARROWS,,,,,,2005,2453581.5,211,1630,4.0,Campfire,2453581.5,211.0,1700,0.1,A,42.69833333,-112.41888889,5.0,USFS,ID,5,005,Bannock
356,363,FS-1419648,FED,FS-FIRESTAT,FS,USORFWF,Fremont-Winema National Forest,0602,Fremont-Winema National Forest,11,104,BE0X,FIVE-MILE  140,,,,,,2005,2453573.5,203,0815,1.0,Lightning,2453573.5,203.0,1330,0.8,B,42.53222222,-121.12055556,5.0,USFS,OR,37,037,Lake
357,364,FS-1419649,FED,FS-FIRESTAT,FS,USNMGNF,Gila National Forest,0306,Gila National Forest,80,013,BEY1,MANNESS,,,,,,2005,2453564.5,194,1823,1.0,Lightning,2453565.5,195.0,1700,0.1,A,33.66638889,-109.0,5.0,USFS,NM,3,003,Catron
358,365,FS-1419650,FED,FS-FIRESTAT,FS,USAZCOF,Coconino National Forest,0304,Coconino National Forest,18,006,BEX9,RAIN,,,,,,2005,2453518.5,148,1315,1.0,Lightning,2453518.5,148.0,1530,0.1,A,35.31694444,-111.42388889,5.0,USFS,AZ,5,005,Coconino
359,366,FS-1419652,FED,FS-FIRESTAT,FS,USAZCOF,Coconino National Forest,0304,Coconino National Forest,19,007,BEX9,DUNE,,,,,,2005,2453518.5,148,1333,1.0,Lightning,2453518.5,148.0,1700,0.1,A,35.32805556,-111.44027778,5.0,USFS,AZ,5,005,Coconino
360,367,FS-1419653,FED,FS-FIRESTAT,FS,USNMGNF,Gila National Forest,0306,Gila National Forest,88,014,BEY1,SKUNK,,,,,,2005,2453565.5,195,1720,1.0,Lightning,2453566.5,196.0,1000,0.5,B,33.65222222,-109.0,5.0,USFS,NM,3,003,Catron
361,368,FS-1419655,FED,FS-FIRESTAT,FS,USAZCOF,Coconino National Forest,0304,Coconino National Forest,21,008,BEX9,WALNUT,,,,,,2005,2453518.5,148,1635,1.0,Lightning,2453518.5,148.0,1745,0.1,A,35.54722222,-111.20833333,5.0,USFS,AZ,5,005,Coconino
362,369,FS-1419657,FED,FS-FIRESTAT,FS,USNMGNF,Gila National Forest,0306,Gila National Forest,92,015,BEY1,GROUSE,,,,,,2005,2453566.5,196,1745,1.0,Lightning,2453568.5,198.0,1800,1.0,B,33.33777778,-108.72,5.0,USFS,NM,3,003,Catron
363,370,FS-1419658,FED,FS-FIRESTAT,FS,USAZCOF,Coconino National Forest,0304,Coconino National Forest,22,009,BEX9,SAGE,,,,,,2005,2453518.5,148,1644,1.0,Lightning,2453518.5,148.0,1745,0.1,A,35.53083333,-111.41027778,5.0,USFS,AZ,5,005,Coconino
364,371,FS-1419660,FED,FS-FIRESTAT,FS,USCOPSF,Pike and San Isabel National Forest,0212,Pike San Isabel National Forest,84,017,B2FS,STRONTIA SPRINGS,,,,,,2005,2453580.5,210,1300,1.0,Lightning,2453580.5,210.0,1445,0.5,B,39.41277778,-105.14111111,5.0,USFS,CO,,,
365,372,FS-1419661,FED,FS-FIRESTAT,FS,USAZCOF,Coconino National Forest,0304,Coconino National Forest,25,010,BEX9,HALEY,,,,,,2005,2453519.5,149,1430,1.0,Lightning,2453519.5,149.0,1900,0.75,B,35.46222222,-111.80277778,5.0,USFS,AZ,5,005,Coconino
366,373,FS-1419662,FED,FS-FIRESTAT,FS,USNMGNF,Gila National Forest,0306,Gila National Forest,93,016,BEY1,SAWMILL,,,,,,2005,2453566.5,196,2130,1.0,Lightning,2453567.5,197.0,1100,0.1,A,33.00222222,-108.93527778,5.0,USFS,NM,17,017,Grant
367,374,FS-1419669,FED,FS-FIRESTAT,FS,USCOPSF,Pike and San Isabel National Forest,0212,Pike San Isabel National Forest,82,016,BEX1,WILLOW FIRE,,,,,,2005,2453576.5,206,1500,1.0,Lightning,2453576.5,206.0,1736,0.5,B,39.33805556,-105.17416667,5.0,USFS,CO,,,
368,375,FS-1419670,FED,FS-FIRESTAT,FS,USNMGNF,Gila National Forest,0306,Gila National Forest,96,18,BEY1,CANYON,,,,,,2005,2453567.5,197,1500,1.0,Lightning,2453573.5,203.0,1800,2.0,B,33.66916667,-108.95194444,5.0,USFS,NM,3,003,Catron
369,376,FS-1419671,FED,FS-FIRESTAT,FS,USCAANF,Angeles National Forest,0501,Angeles National Forest,66,05,BE0B,CHEVY,,,,,,2005,2453554.5,184,2130,2.0,Equipment Use,2453554.5,184.0,2230,0.1,A,34.24222222,-117.85583333,5.0,USFS,CA,,,
370,377,FS-1419672,FED,FS-FIRESTAT,FS,USCOPSF,Pike and San Isabel National Forest,0212,Pike San Isabel National Forest,66,014,BEX1,JACKSON CREEK,,,,,,2005,2453567.5,197,1930,1.0,Lightning,2453567.5,197.0,2315,0.5,B,39.2975,-105.05972222,5.0,USFS,CO,,,
371,378,FS-1419683,FED,FS-FIRESTAT,FS,USAZCOF,Coconino National Forest,0304,Coconino National Forest,27,011,BEX9,SAN FRANSISCO,,,,,,2005,2453520.5,150,1230,1.0,Lightning,2453520.5,150.0,1545,0.25,A,35.25277778,-111.38444444,5.0,USFS,AZ,5,005,Coconino
372,379,FS-1419684,FED,FS-FIRESTAT,FS,USCOPSF,Pike and San Isabel National Forest,0212,Pike San Isabel National Forest,40,010,BEX1,BRIDGE CROSSING,,,,,,2005,2453546.5,176,1201,1.0,Lightning,2453546.5,176.0,1747,0.1,A,39.29416667,-105.19277778,5.0,USFS,CO,,,
373,380,FS-1419686,FED,FS-FIRESTAT,FS,USAZCOF,Coconino National Forest,0304,Coconino National Forest,28,012,BEX9,CINDER,,,,,,2005,2453521.5,151,1423,4.0,Campfire,2453521.5,151.0,1630,0.1,A,35.33277778,-111.51305556,5.0,USFS,AZ,5,005,Coconino
374,381,FS-1419688,FED,FS-FIRESTAT,FS,USAZCOF,Coconino National Forest,0304,Coconino National Forest,31,013,BTP5,LOCKETT,,,,,,2005,2453526.5,156,1502,4.0,Campfire,2453526.5,156.0,1600,0.1,A,35.3575,-111.62166667,5.0,USFS,AZ,5,005,Coconino
375,382,FS-1419690,FED,FS-FIRESTAT,FS,USCAANF,Angeles National Forest,0501,Angeles National Forest,78,06,BE0B,JAG,,,,,,2005,2453560.5,190,1115,9.0,Miscellaneous,2453560.5,190.0,1130,0.1,A,34.22388889,-117.6675,5.0,USFS,CA,,,
376,383,FS-1419691,FED,FS-FIRESTAT,FS,USAZCOF,Coconino National Forest,0304,Coconino National Forest,34,014,BEX9,AUSTRALIA,,,,,,2005,2453529.5,159,1517,4.0,Campfire,2453529.5,159.0,1600,0.1,A,35.34138889,-111.50861111,5.0,USFS,AZ,5,005,Coconino
377,384,FS-1419693,FED,FS-FIRESTAT,FS,USAZCOF,Coconino National Forest,0304,Coconino National Forest,37,015,BEX9,EVENING,,,,,,2005,2453532.5,162,1816,1.0,Lightning,2453533.5,163.0,1030,0.1,A,35.32166667,-111.46722222,5.0,USFS,AZ,5,005,Coconino
378,385,FS-1419694,FED,FS-FIRESTAT,FS,USCOPSF,Pike and San Isabel National Forest,0212,Pike San Isabel National Forest,31,005,BEX1,BIG ROCK,,,,,,2005,2453544.5,174,1200,1.0,Lightning,2453544.5,174.0,1340,0.5,B,39.34166667,-105.32138889,5.0,USFS,CO,,,
379,386,FS-1419696,FED,FS-FIRESTAT,FS,USAZCOF,Coconino National Forest,0304,Coconino National Forest,38,016,BEX9,DRY LAKE,,,,,,2005,2453533.5,163,0600,1.0,Lightning,2453533.5,163.0,1000,0.1,A,35.25305556,-111.65861111,5.0,USFS,AZ,5,005,Coconino
380,387,FS-1419697,FED,FS-FIRESTAT,FS,USCAENF,Eldorado National Forest,0503,Eldorado National Forest,6,3,BX3F,DARLING,,,,,,2005,2453554.5,184,1817,5.0,Debris Burning,2453554.5,184.0,1918,0.1,A,38.89694444,-120.7825,13.0,STATE OR PRIVATE,CA,,,
381,388,FS-1419704,FED,FS-FIRESTAT,FS,USCOPSF,Pike and San Isabel National Forest,0212,Pike San Isabel National Forest,32,006,BEX1,SOUTH SCRAGGY,,,,,,2005,2453544.5,174,1700,1.0,Lightning,2453545.5,175.0,1350,0.1,A,39.3325,-105.19805556,5.0,USFS,CO,,,
382,389,FS-1419707,FED,FS-FIRESTAT,FS,USCAANF,Angeles National Forest,0501,Angeles National Forest,92,08,BE8B,LEROY,,,,,,2005,2453571.5,201,0830,9.0,Miscellaneous,2453571.5,201.0,1000,0.1,A,34.12222222,-117.75055556,14.0,MISSING/NOT SPECIFIED,CA,,,
383,390,FS-1419708,FED,FS-FIRESTAT,FS,USCOPSF,Pike and San Isabel National Forest,0212,Pike San Isabel National Forest,25,003,BEX1,SCRAGGLY,,,,,,2005,2453536.5,166,1440,1.0,Lightning,2453536.5,166.0,1500,0.1,A,39.36277778,-105.21222222,5.0,USFS,CO,,,
384,391,FS-1419709,FED,FS-FIRESTAT,FS,USCOPSF,Pike and San Isabel National Forest,0212,Pike San Isabel National Forest,24,002,BEX1,WATERTON CANYON,,,,,,2005,2453536.5,166,1500,1.0,Lightning,2453536.5,166.0,1620,2.0,B,39.48055556,-105.13666667,5.0,USFS,CO,,,
385,392,FS-1419710,FED,FS-FIRESTAT,FS,USNMGNF,Gila National Forest,0306,Gila National Forest,97,019,BEY1,WARD,,,,,,2005,2453567.5,197,1630,1.0,Lightning,2453573.5,203.0,1800,2.0,B,33.66833333,-108.96861111,5.0,USFS,NM,3,003,Catron
386,393,FS-1419712,FED,FS-FIRESTAT,FS,USCOPSF,Pike and San Isabel National Forest,0212,Pike San Isabel National Forest,34,007,BEX1,CAMPBELL SOUTH,,,,,,2005,2453546.5,176,0923,1.0,Lightning,2453546.5,176.0,1425,0.1,A,39.3075,-105.13444444,5.0,USFS,CO,,,
387,394,FS-1419713,FED,FS-FIRESTAT,FS,USNMGNF,Gila National Forest,0306,Gila National Forest,98,020,BEY1,RAIN,,,,,,2005,2453567.5,197,1600,1.0,Lightning,2453569.5,199.0,1800,0.1,A,33.28416667,-108.6675,5.0,USFS,NM,3,003,Catron
388,395,FS-1419714,FED,FS-FIRESTAT,FS,USCOPSF,Pike and San Isabel National Forest,0212,Pike San Isabel National Forest,49,013,BEX!,NIGHTHAWK,,,,,,2005,2453556.5,186,1430,1.0,Lightning,2453557.5,187.0,1030,0.3,B,39.3525,-105.15555556,5.0,USFS,CO,,,
389,396,FS-1419715,FED,FS-FIRESTAT,FS,USCASQF,Sequoia National Forest,0513,Sequoia National Forest,2,02,BE0P,ANT,,,,,,2005,2453518.5,148,1745,4.0,Campfire,2453518.5,148.0,1750,0.1,A,35.88638889,-118.46111111,5.0,USFS,CA,,,
390,397,FS-1419716,FED,FS-FIRESTAT,FS,USCOPSF,Pike and San Isabel National Forest,0212,Pike San Isabel National Forest,36,008,BEX1,DODGER,,,,,,2005,2453545.5,175,1428,1.0,Lightning,2453545.5,175.0,1649,0.5,B,39.38333333,-105.29333333,5.0,USFS,CO,,,
391,398,FS-1419717,FED,FS-FIRESTAT,FS,USCAANF,Angeles National Forest,0501,Angeles National Forest,89,07,BE0B,ICEHOUSE,,,,,,2005,2453567.5,197,2200,9.0,Miscellaneous,2453567.5,197.0,2245,0.1,A,34.25,-117.63666667,5.0,USFS,CA,,,
392,399,FS-1419721,FED,FS-FIRESTAT,FS,USCASQF,Sequoia National Forest,0513,Sequoia National Forest,9,003,BE0P,GREENLEAF,,,,,,2005,2453524.5,154,1325,5.0,Debris Burning,2453524.5,154.0,1345,0.1,A,35.76805556,-118.43611111,13.0,STATE OR PRIVATE,CA,,,
393,401,FS-1419723,FED,FS-FIRESTAT,FS,USNMGNF,Gila National Forest,0306,Gila National Forest,122,21,BEY1,DANGEROUS,,,,,,2005,2453569.5,199,1000,1.0,Lightning,2453573.5,203.0,1800,2.0,B,33.61833333,-108.95138889,5.0,USFS,NM,3,003,Catron
394,402,FS-1419724,FED,FS-FIRESTAT,FS,USNMGNF,Gila National Forest,0306,Gila National Forest,171,22,BEY1,FRANCISCO,,,,,,2005,2453575.5,205,1745,1.0,Lightning,2453577.5,207.0,1800,0.3,B,33.21888889,-108.0025,5.0,USFS,NM,3,003,Catron
395,403,FS-1419725,FED,FS-FIRESTAT,FS,USCAANF,Angeles National Forest,0501,Angeles National Forest,105,011,BE0B,DUMPSTER,,,,,,2005,2453575.5,205,1400,9.0,Miscellaneous,2453575.5,205.0,1420,0.1,A,34.16805556,-117.76861111,5.0,USFS,CA,,,
396,404,FS-1419729,FED,FS-FIRESTAT,FS,USCAANF,Angeles National Forest,0501,Angeles National Forest,107,12,BE8B,MARSHALL,,,,,,2005,2453579.5,209,1425,3.0,Smoking,2453579.5,209.0,1440,0.1,A,34.15166667,-117.74361111,14.0,MISSING/NOT SPECIFIED,CA,,,
